{"totalResultsCount":4324,"geonames":[{"adminCode1":"ENG","lng":"-0.12574","geonameId":2643743,"toponymName":"London","countryId":"2635167","fcl":"P","population":7556900,"countryCode":"GB","name":"London","fclName":"city, village,...","adminCodes1":{"ISO3166_2":"ENG"},"countryName":"United Kingdom","fcodeName":"capital of a political entity","adminName1":"England","lat":"51.50853","fcode":"PPLC"},{"adminCode1":"ENG","lng":"-1.89983","geonameId":2655603,"toponymName":"Birmingham","countryId":"2635167","fcl":"P","population":984333,"countryCode":"GB","name":"Birmingham","fclName":"city, village,...","adminCodes1":{"ISO3166_2":"ENG"},"countryName":"United Kingdom","fcodeName":"seat of a second-order administrative division","adminName1":"England","lat":"52.48142","fcode":"PPLA2"},{"adminCode1":"ENG","lng":"-1.4659","geonameId":2638077,"toponymName":"Sheffield","countryId":"2635167","fcl":"P","population":685368,"countryCode":"GB","name":"Sheffield","fclName":"city, village,...","adminCodes1":{"ISO3166_2":"ENG"},"countryName":"United Kingdom","fcodeName":"seat of a second-order administrative division","adminName1":"England","lat":"53.38297","fcode":"PPLA2"},{"adminCode1":"ENG","lng":"-2.97794","geonameId":2644210,"toponymName":"Liverpool","countryId":"2635167","fcl":"P","population":864122,"countryCode":"GB","name":"Liverpool","fclName":"city, village,...","adminCodes1":{"ISO3166_2":"ENG"},"countryName":"United Kingdom","fcodeName":"seat of a second-order administrative division","adminName1":"England","lat":"53.41058","fcode":"PPLA2"},{"adminCode1":"SCT","lng":"-3.19648","geonameId":2650225,"toponymName":"Edinburgh","countryId":"2635167","fcl":"P","population":464990,"countryCode":"GB","name":"Edinburgh","fclName":"city, village,...","adminCodes1":{"ISO3166_2":"SCT"},"countryName":"United Kingdom","fcodeName":"seat of a first-order administrative division","adminName1":"Scotland","lat":"55.95206","fcode":"PPLA"},{"adminCode1":"ENG","lng":"-2.59665","geonameId":2654675,"toponymName":"Bristol","countryId":"2635167","fcl":"P","population":617280,"countryCode":"GB","name":"Bristol","fclName":"city, village,...","adminCodes1":{"ISO3166_2":"ENG"},"countryName":"United Kingdom","fcodeName":"seat of a second-order administrative division","adminName1":"England","lat":"51.45523","fcode":"PPLA2"},{"adminCode1":"ENG","lng":"-1.15047","geonameId":2641170,"toponymName":"Nottingham","countryId":"2635167","fcl":"P","population":729977,"countryCode":"GB","name":"Nottingham","fclName":"city, village,...","adminCodes1":{"ISO3166_2":"ENG"},"countryName":"United Kingdom","fcodeName":"seat of a second-order administrative division","adminName1":"England","lat":"52.9536","fcode":"PPLA2"},{"adminCode1":"ENG","lng":"-1.13169","geonameId":2644668,"toponymName":"Leicester","countryId":"2635167","fcl":"P","population":508916,"countryCode":"GB","name":"Leicester","fclName":"city, village,...","adminCodes1":{"ISO3166_2":"ENG"},"countryName":"United Kingdom","fcodeName":"seat of a second-order administrative division","adminName1":"England","lat":"52.6386","fcode":"PPLA2"},{"adminCode1":"SCT","lng":"-4.25763","geonameId":2648579,"toponymName":"Glasgow","countryId":"2635167","fcl":"P","population":591620,"countryCode":"GB","name":"Glasgow","fclName":"city, village,...","adminCodes1":{"ISO3166_2":"SCT"},"countryName":"United Kingdom","fcodeName":"seat of a second-order administrative division","adminName1":"Scotland","lat":"55.86515","fcode":"PPLA2"},{"adminCode1":"9782170","lng":"-4.48333","geonameId":3042237,"toponymName":"Douglas","countryId":"3042225","fcl":"P","population":26218,"countryCode":"IM","name":"Douglas","fclName":"city, village,...","countryName":"Isle of Man","fcodeName":"capital of a political entity","adminName1":"Douglas","lat":"54.15","fcode":"PPLC"},{"adminCode1":"ENG","lng":"-1.54785","geonameId":2644688,"toponymName":"Leeds","countryId":"2635167","fcl":"P","population":455123,"countryCode":"GB","name":"Leeds","fclName":"city, village,...","adminCodes1":{"ISO3166_2":"ENG"},"countryName":"United Kingdom","fcodeName":"seat of a second-order administrative division","adminName1":"England","lat":"53.79648","fcode":"PPLA2"},{"adminCode1":"6417228","lng":"-2.53527","geonameId":3042287,"toponymName":"Saint Peter Port","countryId":"3042362","fcl":"P","population":16488,"countryCode":"GG","name":"St Peter Port","fclName":"city, village,...","countryName":"Guernsey","fcodeName":"capital of a political entity","adminName1":"St Peter Port","lat":"49.45981","fcode":"PPLC"},{"adminCode1":"00","lng":"-36.5092","geonameId":3426466,"toponymName":"Grytviken","countryId":"3474415","fcl":"P","population":2,"countryCode":"GS","name":"Grytviken","fclName":"city, village,...","countryName":"South Georgia and the South Sandwich Islands","fcodeName":"capital of a political entity","adminName1":"","lat":"-54.28111","fcode":"PPLC"},{"adminCode1":"3237864","lng":"-2.10491","geonameId":3042091,"toponymName":"Saint Helier","countryId":"3042142","fcl":"P","population":28000,"countryCode":"JE","name":"Saint Helier","fclName":"city, village,...","countryName":"Jersey","fcodeName":"capital of a political entity","adminName1":"St Helier","lat":"49.18804","fcode":"PPLC"},{"adminCode1":"9782191","lng":"-4.38526","geonameId":3042192,"toponymName":"Ramsey","countryId":"3042225","fcl":"P","population":7309,"countryCode":"IM","name":"Ramsey","fclName":"city, village,...","countryName":"Isle of Man","fcodeName":"seat of a first-order administrative division","adminName1":"Ramsey","lat":"54.32273","fcode":"PPLA"},{"adminCode1":"9782188","lng":"-4.69099","geonameId":3042198,"toponymName":"Peel","countryId":"3042225","fcl":"P","population":3781,"countryCode":"IM","name":"Peel","fclName":"city, village,...","countryName":"Isle of Man","fcodeName":"seat of a first-order administrative division","adminName1":"Peel","lat":"54.22209","fcode":"PPLA"},{"adminCode1":"ENG","lng":"0.28453","geonameId":2650497,"toponymName":"Eastbourne","countryId":"2635167","fcl":"P","population":118219,"countryCode":"GB","name":"Eastbourne","fclName":"city, village,...","adminCodes1":{"ISO3166_2":"ENG"},"countryName":"United Kingdom","fcodeName":"populated place","adminName1":"England","lat":"50.76871","fcode":"PPL"},{"adminCode1":"SCT","lng":"-2.97489","geonameId":2650752,"toponymName":"Dundee","countryId":"2635167","fcl":"P","population":147710,"countryCode":"GB","name":"Dundee","fclName":"city, village,...","adminCodes1":{"ISO3166_2":"SCT"},"countryName":"United Kingdom","fcodeName":"seat of a second-order administrative division","adminName1":"Scotland","lat":"56.46913","fcode":"PPLA2"},{"adminCode1":"ENG","lng":"-1.47663","geonameId":2651347,"toponymName":"Derby","countryId":"2635167","fcl":"P","population":270468,"countryCode":"GB","name":"Derby","fclName":"city, village,...","adminCodes1":{"ISO3166_2":"ENG"},"countryName":"United Kingdom","fcodeName":"seat of a second-order administrative division","adminName1":"England","lat":"52.92277","fcode":"PPLA2"},{"adminCode1":"ENG","lng":"-1.51217","geonameId":2652221,"toponymName":"Coventry","countryId":"2635167","fcl":"P","population":359262,"countryCode":"GB","name":"Coventry","fclName":"city, village,...","adminCodes1":{"ISO3166_2":"ENG"},"countryName":"United Kingdom","fcodeName":"seat of a second-order administrative division","adminName1":"England","lat":"52.40656","fcode":"PPLA2"},{"adminCode1":"ENG","lng":"0.90421","geonameId":2652618,"toponymName":"Colchester","countryId":"2635167","fcl":"P","population":121859,"countryCode":"GB","name":"Colchester","fclName":"city, village,...","adminCodes1":{"ISO3166_2":"ENG"},"countryName":"United Kingdom","fcodeName":"populated place","adminName1":"England","lat":"51.88921","fcode":"PPL"},{"adminCode1":"ENG","lng":"-1.41667","geonameId":2653225,"toponymName":"Chesterfield","countryId":"2635167","fcl":"P","population":113057,"countryCode":"GB","name":"Chesterfield","fclName":"city, village,...","adminCodes1":{"ISO3166_2":"ENG"},"countryName":"United Kingdom","fcodeName":"populated place","adminName1":"England","lat":"53.25","fcode":"PPL"},{"adminCode1":"ENG","lng":"-2.89189","geonameId":2653228,"toponymName":"Chester","countryId":"2635167","fcl":"P","population":90524,"countryCode":"GB","name":"Chester","fclName":"city, village,...","adminCodes1":{"ISO3166_2":"ENG"},"countryName":"United Kingdom","fcodeName":"seat of a second-order administrative division","adminName1":"England","lat":"53.1905","fcode":"PPLA2"},{"adminCode1":"ENG","lng":"-2.07972","geonameId":2653261,"toponymName":"Cheltenham","countryId":"2635167","fcl":"P","population":116447,"countryCode":"GB","name":"Cheltenham","fclName":"city, village,...","adminCodes1":{"ISO3166_2":"ENG"},"countryName":"United Kingdom","fcodeName":"populated place","adminName1":"England","lat":"51.90006","fcode":"PPL"},{"adminCode1":"WLS","lng":"-3.18","geonameId":2653822,"toponymName":"Cardiff","countryId":"2635167","fcl":"P","population":447287,"countryCode":"GB","name":"Cardiff","fclName":"city, village,...","adminCodes1":{"ISO3166_2":"WLS"},"countryName":"United Kingdom","fcodeName":"seat of a first-order administrative division","adminName1":"Wales","lat":"51.48","fcode":"PPLA"},{"adminCode1":"WLS","lng":"-3.94323","geonameId":2636432,"toponymName":"Swansea","countryId":"2635167","fcl":"P","population":300352,"countryCode":"GB","name":"Swansea","fclName":"city, village,...","adminCodes1":{"ISO3166_2":"WLS"},"countryName":"United Kingdom","fcodeName":"seat of a second-order administrative division","adminName1":"Wales","lat":"51.62079","fcode":"PPLA2"},{"adminCode1":"ENG","lng":"-2.18538","geonameId":2636841,"toponymName":"Stoke-on-Trent","countryId":"2635167","fcl":"P","population":372775,"countryCode":"GB","name":"Stoke-on-Trent","fclName":"city, village,...","adminCodes1":{"ISO3166_2":"ENG"},"countryName":"United Kingdom","fcodeName":"seat of a second-order administrative division","adminName1":"England","lat":"53.00415","fcode":"PPLA2"},{"adminCode1":"ENG","lng":"-1.40428","geonameId":2637487,"toponymName":"Southampton","countryId":"2635167","fcl":"P","population":246201,"countryCode":"GB","name":"Southampton","fclName":"city, village,...","adminCodes1":{"ISO3166_2":"ENG"},"countryName":"United Kingdom","fcodeName":"seat of a second-order administrative division","adminName1":"England","lat":"50.90395","fcode":"PPLA2"},{"adminCode1":"ENG","lng":"0.11667","geonameId":2653941,"toponymName":"Cambridge","countryId":"2635167","fcl":"P","population":158434,"countryCode":"GB","name":"Cambridge","fclName":"city, village,...","adminCodes1":{"ISO3166_2":"ENG"},"countryName":"United Kingdom","fcodeName":"seat of a second-order administrative division","adminName1":"England","lat":"52.2","fcode":"PPLA2"},{"adminCode1":"ENG","lng":"-0.13947","geonameId":2654710,"toponymName":"Brighton","countryId":"2635167","fcl":"P","population":139001,"countryCode":"GB","name":"Brighton","fclName":"city, village,...","adminCodes1":{"ISO3166_2":"ENG"},"countryName":"United Kingdom","fcodeName":"seat of a second-order administrative division","adminName1":"England","lat":"50.82838","fcode":"PPLA2"},{"adminCode1":"ENG","lng":"-1.75206","geonameId":2654993,"toponymName":"Bradford","countryId":"2635167","fcl":"P","population":299310,"countryCode":"GB","name":"Bradford","fclName":"city, village,...","adminCodes1":{"ISO3166_2":"ENG"},"countryName":"United Kingdom","fcodeName":"seat of a second-order administrative division","adminName1":"England","lat":"53.79391","fcode":"PPLA2"},{"adminCode1":"ENG","lng":"-1.8795","geonameId":2655095,"toponymName":"Bournemouth","countryId":"2635167","fcl":"P","population":163600,"countryCode":"GB","name":"Bournemouth","fclName":"city, village,...","adminCodes1":{"ISO3166_2":"ENG"},"countryName":"United Kingdom","fcodeName":"seat of a second-order administrative division","adminName1":"England","lat":"50.72048","fcode":"PPLA2"},{"adminCode1":"ENG","lng":"-3.01479","geonameId":2655613,"toponymName":"Birkenhead","countryId":"2635167","fcl":"P","population":325264,"countryCode":"GB","name":"Birkenhead","fclName":"city, village,...","adminCodes1":{"ISO3166_2":"ENG"},"countryName":"United Kingdom","fcodeName":"populated place","adminName1":"England","lat":"53.39337","fcode":"PPL"},{"adminCode1":"NIR","lng":"-5.92541","geonameId":2655984,"toponymName":"Belfast","countryId":"2635167","fcl":"P","population":274770,"countryCode":"GB","name":"Belfast","fclName":"city, village,...","adminCodes1":{"ISO3166_2":"NIR"},"countryName":"United Kingdom","fcodeName":"seat of a first-order administrative division","adminName1":"Northern Ireland","lat":"54.59682","fcode":"PPLA"},{"adminCode1":"ENG","lng":"0.45782","geonameId":2656194,"toponymName":"Basildon","countryId":"2635167","fcl":"P","population":144859,"countryCode":"GB","name":"Basildon","fclName":"city, village,...","adminCodes1":{"ISO3166_2":"ENG"},"countryName":"United Kingdom","fcodeName":"populated place","adminName1":"England","lat":"51.56844","fcode":"PPL"},{"adminCode1":"ENG","lng":"-1.09125","geonameId":2639996,"toponymName":"Portsmouth","countryId":"2635167","fcl":"P","population":194150,"countryCode":"GB","name":"Portsmouth","fclName":"city, village,...","adminCodes1":{"ISO3166_2":"ENG"},"countryName":"United Kingdom","fcodeName":"seat of a second-order administrative division","adminName1":"England","lat":"50.79899","fcode":"PPLA2"},{"adminCode1":"ENG","lng":"-4.14305","geonameId":2640194,"toponymName":"Plymouth","countryId":"2635167","fcl":"P","population":260203,"countryCode":"GB","name":"Plymouth","fclName":"city, village,...","adminCodes1":{"ISO3166_2":"ENG"},"countryName":"United Kingdom","fcodeName":"seat of a second-order administrative division","adminName1":"England","lat":"50.37153","fcode":"PPLA2"},{"adminCode1":"ENG","lng":"-1.25596","geonameId":2640729,"toponymName":"Oxford","countryId":"2635167","fcl":"P","population":171380,"countryCode":"GB","name":"Oxford","fclName":"city, village,...","adminCodes1":{"ISO3166_2":"ENG"},"countryName":"United Kingdom","fcodeName":"seat of a second-order administrative division","adminName1":"England","lat":"51.75222","fcode":"PPLA2"},{"adminCode1":"WLS","lng":"-2.99835","geonameId":2641598,"toponymName":"Newport","countryId":"2635167","fcl":"P","population":306844,"countryCode":"GB","name":"Newport","fclName":"city, village,...","adminCodes1":{"ISO3166_2":"WLS"},"countryName":"United Kingdom","fcodeName":"seat of a second-order administrative division","adminName1":"Wales","lat":"51.58774","fcode":"PPLA2"},{"adminCode1":"ENG","lng":"-1.61396","geonameId":2641673,"toponymName":"Newcastle upon Tyne","countryId":"2635167","fcl":"P","population":192382,"countryCode":"GB","name":"Newcastle upon Tyne","fclName":"city, village,...","adminCodes1":{"ISO3166_2":"ENG"},"countryName":"United Kingdom","fcodeName":"seat of a second-order administrative division","adminName1":"England","lat":"54.97328","fcode":"PPLA2"},{"adminCode1":"ENG","lng":"-1.23483","geonameId":2642607,"toponymName":"Middlesbrough","countryId":"2635167","fcl":"P","population":142707,"countryCode":"GB","name":"Middlesbrough","fclName":"city, village,...","adminCodes1":{"ISO3166_2":"ENG"},"countryName":"United Kingdom","fcodeName":"seat of a second-order administrative division","adminName1":"England","lat":"54.57623","fcode":"PPLA2"},{"adminCode1":"ENG","lng":"-2.23743","geonameId":2643123,"toponymName":"Manchester","countryId":"2635167","fcl":"P","population":395515,"countryCode":"GB","name":"Manchester","fclName":"city, village,...","adminCodes1":{"ISO3166_2":"ENG"},"countryName":"United Kingdom","fcodeName":"seat of a second-order administrative division","adminName1":"England","lat":"53.48095","fcode":"PPLA2"},{"adminCode1":"ENG","lng":"-0.53792","geonameId":2644487,"toponymName":"Lincoln","countryId":"2635167","fcl":"P","population":114879,"countryCode":"GB","name":"Lincoln","fclName":"city, village,...","adminCodes1":{"ISO3166_2":"ENG"},"countryName":"United Kingdom","fcodeName":"seat of a second-order administrative division","adminName1":"England","lat":"53.22683","fcode":"PPLA2"},{"adminCode1":"ENG","lng":"-2.71482","geonameId":2647074,"toponymName":"Hereford","countryId":"2635167","fcl":"P","population":60415,"countryCode":"GB","name":"Hereford","fclName":"city, village,...","adminCodes1":{"ISO3166_2":"ENG"},"countryName":"United Kingdom","fcodeName":"seat of a second-order administrative division","adminName1":"England","lat":"52.05684","fcode":"PPLA2"},{"adminCode1":"ENG","lng":"0.57292","geonameId":2647356,"toponymName":"Hastings","countryId":"2635167","fcl":"P","population":133422,"countryCode":"GB","name":"Hastings","fclName":"city, village,...","adminCodes1":{"ISO3166_2":"ENG"},"countryName":"United Kingdom","fcodeName":"populated place","adminName1":"England","lat":"50.85519","fcode":"PPL"},{"adminCode1":"ENG","lng":"-2.2431","geonameId":2648404,"toponymName":"Gloucester","countryId":"2635167","fcl":"P","population":150053,"countryCode":"GB","name":"Gloucester","fclName":"city, village,...","adminCodes1":{"ISO3166_2":"ENG"},"countryName":"United Kingdom","fcodeName":"seat of a second-order administrative division","adminName1":"England","lat":"51.86568","fcode":"PPLA2"},{"adminCode1":"ENG","lng":"-3.52751","geonameId":2649808,"toponymName":"Exeter","countryId":"2635167","fcl":"P","population":117763,"countryCode":"GB","name":"Exeter","fclName":"city, village,...","adminCodes1":{"ISO3166_2":"ENG"},"countryName":"United Kingdom","fcodeName":"seat of a second-order administrative division","adminName1":"England","lat":"50.7236","fcode":"PPLA2"},{"adminCode1":"ENG","lng":"-1.08271","geonameId":2633352,"toponymName":"York","countryId":"2635167","fcl":"P","population":153717,"countryCode":"GB","name":"York","fclName":"city, village,...","adminCodes1":{"ISO3166_2":"ENG"},"countryName":"United Kingdom","fcodeName":"seat of a second-order administrative division","adminName1":"England","lat":"53.95763","fcode":"PPLA2"},{"adminCode1":"ENG","lng":"-2.22001","geonameId":2633563,"toponymName":"Worcester","countryId":"2635167","fcl":"P","population":101659,"countryCode":"GB","name":"Worcester","fclName":"city, village,...","adminCodes1":{"ISO3166_2":"ENG"},"countryName":"United Kingdom","fcodeName":"seat of a second-order administrative division","adminName1":"England","lat":"52.18935","fcode":"PPLA2"},{"adminCode1":"ENG","lng":"-2.12296","geonameId":2633691,"toponymName":"Wolverhampton","countryId":"2635167","fcl":"P","population":252791,"countryCode":"GB","name":"Wolverhampton","fclName":"city, village,...","adminCodes1":{"ISO3166_2":"ENG"},"countryName":"United Kingdom","fcodeName":"seat of a second-order administrative division","adminName1":"England","lat":"52.58547","fcode":"PPLA2"},{"adminCode1":"ENG","lng":"-0.55893","geonameId":2633709,"toponymName":"Woking","countryId":"2635167","fcl":"P","population":103932,"countryCode":"GB","name":"Woking","fclName":"city, village,...","adminCodes1":{"ISO3166_2":"ENG"},"countryName":"United Kingdom","fcodeName":"populated place","adminName1":"England","lat":"51.31903","fcode":"PPL"},{"adminCode1":"ENG","lng":"-0.39602","geonameId":2634677,"toponymName":"Watford","countryId":"2635167","fcl":"P","population":125707,"countryCode":"GB","name":"Watford","fclName":"city, village,...","adminCodes1":{"ISO3166_2":"ENG"},"countryName":"United Kingdom","fcodeName":"populated place","adminName1":"England","lat":"51.65531","fcode":"PPL"},{"adminCode1":"SCT","lng":"-2.09814","geonameId":2657832,"toponymName":"Aberdeen","countryId":"2635167","fcl":"P","population":196670,"countryCode":"GB","name":"Aberdeen","fclName":"city, village,...","adminCodes1":{"ISO3166_2":"SCT"},"countryName":"United Kingdom","fcodeName":"seat of a second-order administrative division","adminName1":"Scotland","lat":"57.14369","fcode":"PPLA2"},{"adminCode1":"9782169","lng":"-4.65365","geonameId":3042255,"toponymName":"Castletown","countryId":"3042225","fcl":"P","population":3100,"countryCode":"IM","name":"Castletown","fclName":"city, village,...","countryName":"Isle of Man","fcodeName":"seat of a first-order administrative division","adminName1":"Castletown","lat":"54.07445","fcode":"PPLA"},{"adminCode1":"SCT","lng":"-3.45887","geonameId":2650732,"toponymName":"Dunfermline","countryId":"2635167","fcl":"P","population":50380,"countryCode":"GB","name":"Dunfermline","fclName":"city, village,...","adminCodes1":{"ISO3166_2":"SCT"},"countryName":"United Kingdom","fcodeName":"populated place","adminName1":"Scotland","lat":"56.07156","fcode":"PPL"},{"adminCode1":"ENG","lng":"-2.08333","geonameId":2650839,"toponymName":"Dudley","countryId":"2635167","fcl":"P","population":199059,"countryCode":"GB","name":"Dudley","fclName":"city, village,...","adminCodes1":{"ISO3166_2":"ENG"},"countryName":"United Kingdom","fcodeName":"seat of a second-order administrative division","adminName1":"England","lat":"52.5","fcode":"PPLA2"},{"adminCode1":"ENG","lng":"1.31257","geonameId":2651048,"toponymName":"Dover","countryId":"2635167","fcl":"P","population":41709,"countryCode":"GB","name":"Dover","fclName":"city, village,...","adminCodes1":{"ISO3166_2":"ENG"},"countryName":"United Kingdom","fcodeName":"populated place","adminName1":"England","lat":"51.12598","fcode":"PPL"},{"adminCode1":"ENG","lng":"-1.13116","geonameId":2651123,"toponymName":"Doncaster","countryId":"2635167","fcl":"P","population":158141,"countryCode":"GB","name":"Doncaster","fclName":"city, village,...","adminCodes1":{"ISO3166_2":"ENG"},"countryName":"United Kingdom","fcodeName":"seat of a second-order administrative division","adminName1":"England","lat":"53.52285","fcode":"PPLA2"},{"adminCode1":"ENG","lng":"-1.55039","geonameId":2651513,"toponymName":"Darlington","countryId":"2635167","fcl":"P","population":92363,"countryCode":"GB","name":"Darlington","fclName":"city, village,...","adminCodes1":{"ISO3166_2":"ENG"},"countryName":"United Kingdom","fcodeName":"seat of a second-order administrative division","adminName1":"England","lat":"54.52429","fcode":"PPLA2"},{"adminCode1":"ENG","lng":"-2.44161","geonameId":2652002,"toponymName":"Crewe","countryId":"2635167","fcl":"P","population":75556,"countryCode":"GB","name":"Crewe","fclName":"city, village,...","adminCodes1":{"ISO3166_2":"ENG"},"countryName":"United Kingdom","fcodeName":"populated place","adminName1":"England","lat":"53.09787","fcode":"PPL"},{"adminCode1":"ENG","lng":"-0.18312","geonameId":2652053,"toponymName":"Crawley","countryId":"2635167","fcl":"P","population":180508,"countryCode":"GB","name":"Crawley","fclName":"city, village,...","adminCodes1":{"ISO3166_2":"ENG"},"countryName":"United Kingdom","fcodeName":"populated place","adminName1":"England","lat":"51.11303","fcode":"PPL"},{"adminCode1":"ENG","lng":"0.46958","geonameId":2653266,"toponymName":"Chelmsford","countryId":"2635167","fcl":"P","population":111511,"countryCode":"GB","name":"Chelmsford","fclName":"city, village,...","adminCodes1":{"ISO3166_2":"ENG"},"countryName":"United Kingdom","fcodeName":"seat of a second-order administrative division","adminName1":"England","lat":"51.73575","fcode":"PPLA2"},{"adminCode1":"ENG","lng":"-2.9382","geonameId":2653775,"toponymName":"Carlisle","countryId":"2635167","fcl":"P","population":78470,"countryCode":"GB","name":"Carlisle","fclName":"city, village,...","adminCodes1":{"ISO3166_2":"ENG"},"countryName":"United Kingdom","fcodeName":"seat of a second-order administrative division","adminName1":"England","lat":"54.8951","fcode":"PPLA2"},{"adminCode1":"ENG","lng":"-1.69587","geonameId":2636276,"toponymName":"Tamworth","countryId":"2635167","fcl":"P","population":81964,"countryCode":"GB","name":"Tamworth","fclName":"city, village,...","adminCodes1":{"ISO3166_2":"ENG"},"countryName":"United Kingdom","fcodeName":"populated place","adminName1":"England","lat":"52.63399","fcode":"PPL"},{"adminCode1":"ENG","lng":"-1.78116","geonameId":2636389,"toponymName":"Swindon","countryId":"2635167","fcl":"P","population":185609,"countryCode":"GB","name":"Swindon","fclName":"city, village,...","adminCodes1":{"ISO3166_2":"ENG"},"countryName":"United Kingdom","fcodeName":"seat of a second-order administrative division","adminName1":"England","lat":"51.55797","fcode":"PPLA2"},{"adminCode1":"ENG","lng":"-1.81667","geonameId":2636486,"toponymName":"Sutton Coldfield","countryId":"2635167","fcl":"P","population":107030,"countryCode":"GB","name":"Sutton Coldfield","fclName":"city, village,...","adminCodes1":{"ISO3166_2":"ENG"},"countryName":"United Kingdom","fcodeName":"populated place","adminName1":"England","lat":"52.56667","fcode":"PPL"},{"adminCode1":"ENG","lng":"-1.38222","geonameId":2636531,"toponymName":"Sunderland","countryId":"2635167","fcl":"P","population":335415,"countryCode":"GB","name":"Sunderland","fclName":"city, village,...","adminCodes1":{"ISO3166_2":"ENG"},"countryName":"United Kingdom","fcodeName":"seat of a second-order administrative division","adminName1":"England","lat":"54.90465","fcode":"PPLA2"},{"adminCode1":"ENG","lng":"-1.70734","geonameId":2636713,"toponymName":"Stratford-upon-Avon","countryId":"2635167","fcl":"P","population":27830,"countryCode":"GB","name":"Stratford-upon-Avon","fclName":"city, village,...","adminCodes1":{"ISO3166_2":"ENG"},"countryName":"United Kingdom","fcodeName":"populated place","adminName1":"England","lat":"52.19166","fcode":"PPL"},{"adminCode1":"ENG","lng":"-2.15761","geonameId":2636882,"toponymName":"Stockport","countryId":"2635167","fcl":"P","population":139052,"countryCode":"GB","name":"Stockport","fclName":"city, village,...","adminCodes1":{"ISO3166_2":"ENG"},"countryName":"United Kingdom","fcodeName":"seat of a second-order administrative division","adminName1":"England","lat":"53.40979","fcode":"PPLA2"},{"adminCode1":"ENG","lng":"-0.20256","geonameId":2636940,"toponymName":"Stevenage","countryId":"2635167","fcl":"P","population":90232,"countryCode":"GB","name":"Stevenage","fclName":"city, village,...","adminCodes1":{"ISO3166_2":"ENG"},"countryName":"United Kingdom","fcodeName":"populated place","adminName1":"England","lat":"51.90224","fcode":"PPL"},{"adminCode1":"ENG","lng":"0.71433","geonameId":2637433,"toponymName":"Southend-on-Sea","countryId":"2635167","fcl":"P","population":295310,"countryCode":"GB","name":"Southend-on-Sea","fclName":"city, village,...","adminCodes1":{"ISO3166_2":"ENG"},"countryName":"United Kingdom","fcodeName":"seat of a second-order administrative division","adminName1":"England","lat":"51.53782","fcode":"PPLA2"},{"adminCode1":"ENG","lng":"-0.59541","geonameId":2637627,"toponymName":"Slough","countryId":"2635167","fcl":"P","population":163777,"countryCode":"GB","name":"Slough","fclName":"city, village,...","adminCodes1":{"ISO3166_2":"ENG"},"countryName":"United Kingdom","fcodeName":"seat of a second-order administrative division","adminName1":"England","lat":"51.50949","fcode":"PPLA2"},{"adminCode1":"ENG","lng":"-0.40443","geonameId":2638419,"toponymName":"Scarborough","countryId":"2635167","fcl":"P","population":61749,"countryCode":"GB","name":"Scarborough","fclName":"city, village,...","adminCodes1":{"ISO3166_2":"ENG"},"countryName":"United Kingdom","fcodeName":"populated place","adminName1":"England","lat":"54.27966","fcode":"PPL"},{"adminCode1":"ENG","lng":"-2.73333","geonameId":2638785,"toponymName":"St Helens","countryId":"2635167","fcl":"P","population":102555,"countryCode":"GB","name":"St Helens","fclName":"city, village,...","adminCodes1":{"ISO3166_2":"ENG"},"countryName":"United Kingdom","fcodeName":"seat of a second-order administrative division","adminName1":"England","lat":"53.45","fcode":"PPLA2"},{"adminCode1":"ENG","lng":"-0.33333","geonameId":2638867,"toponymName":"St Albans","countryId":"2635167","fcl":"P","population":84561,"countryCode":"GB","name":"St Albans","fclName":"city, village,...","adminCodes1":{"ISO3166_2":"ENG"},"countryName":"United Kingdom","fcodeName":"populated place","adminName1":"England","lat":"51.75","fcode":"PPL"},{"adminCode1":"ENG","lng":"0.26256","geonameId":2639022,"toponymName":"Royal Tunbridge Wells","countryId":"2635167","fcl":"P","population":68910,"countryCode":"GB","name":"Tunbridge Wells","fclName":"city, village,...","adminCodes1":{"ISO3166_2":"ENG"},"countryName":"United Kingdom","fcodeName":"populated place","adminName1":"England","lat":"51.13321","fcode":"PPL"},{"adminCode1":"ENG","lng":"-1.35678","geonameId":2639093,"toponymName":"Rotherham","countryId":"2635167","fcl":"P","population":117618,"countryCode":"GB","name":"Rotherham","fclName":"city, village,...","adminCodes1":{"ISO3166_2":"ENG"},"countryName":"United Kingdom","fcodeName":"seat of a second-order administrative division","adminName1":"England","lat":"53.43012","fcode":"PPLA2"},{"adminCode1":"ENG","lng":"1.07992","geonameId":2653877,"toponymName":"Canterbury","countryId":"2635167","fcl":"P","population":55240,"countryCode":"GB","name":"Canterbury","fclName":"city, village,...","adminCodes1":{"ISO3166_2":"ENG"},"countryName":"United Kingdom","fcodeName":"populated place","adminName1":"England","lat":"51.27904","fcode":"PPL"},{"adminCode1":"ENG","lng":"-1.64263","geonameId":2654200,"toponymName":"Burton upon Trent","countryId":"2635167","fcl":"P","population":122199,"countryCode":"GB","name":"Burton-on-Trent","fclName":"city, village,...","adminCodes1":{"ISO3166_2":"ENG"},"countryName":"United Kingdom","fcodeName":"populated place","adminName1":"England","lat":"52.80728","fcode":"PPL"},{"adminCode1":"ENG","lng":"-2.23333","geonameId":2654264,"toponymName":"Burnley","countryId":"2635167","fcl":"P","population":149422,"countryCode":"GB","name":"Burnley","fclName":"city, village,...","adminCodes1":{"ISO3166_2":"ENG"},"countryName":"United Kingdom","fcodeName":"seat of a fourth-order administrative division","adminName1":"England","lat":"53.8","fcode":"PPLA4"},{"adminCode1":"ENG","lng":"-2.43333","geonameId":2655237,"toponymName":"Bolton","countryId":"2635167","fcl":"P","population":141331,"countryCode":"GB","name":"Bolton","fclName":"city, village,...","adminCodes1":{"ISO3166_2":"ENG"},"countryName":"United Kingdom","fcodeName":"seat of a second-order administrative division","adminName1":"England","lat":"53.58333","fcode":"PPLA2"},{"adminCode1":"ENG","lng":"-3.05","geonameId":2655459,"toponymName":"Blackpool","countryId":"2635167","fcl":"P","population":239409,"countryCode":"GB","name":"Blackpool","fclName":"city, village,...","adminCodes1":{"ISO3166_2":"ENG"},"countryName":"United Kingdom","fcodeName":"seat of a second-order administrative division","adminName1":"England","lat":"53.81667","fcode":"PPLA2"},{"adminCode1":"ENG","lng":"-2.48333","geonameId":2655524,"toponymName":"Blackburn","countryId":"2635167","fcl":"P","population":146521,"countryCode":"GB","name":"Blackburn","fclName":"city, village,...","adminCodes1":{"ISO3166_2":"ENG"},"countryName":"United Kingdom","fcodeName":"seat of a second-order administrative division","adminName1":"England","lat":"53.75","fcode":"PPLA2"},{"adminCode1":"ENG","lng":"0.14866","geonameId":2655775,"toponymName":"Bexley","countryId":"2635167","fcl":"P","population":228000,"countryCode":"GB","name":"Bexley","fclName":"city, village,...","adminCodes1":{"ISO3166_2":"ENG"},"countryName":"United Kingdom","fcodeName":"populated locality","adminName1":"England","lat":"51.44162","fcode":"PPLL"},{"adminCode1":"ENG","lng":"-0.46632","geonameId":2656046,"toponymName":"Bedford","countryId":"2635167","fcl":"P","population":106940,"countryCode":"GB","name":"Bedford","fclName":"city, village,...","adminCodes1":{"ISO3166_2":"ENG"},"countryName":"United Kingdom","fcodeName":"seat of a second-order administrative division","adminName1":"England","lat":"52.13459","fcode":"PPLA2"},{"adminCode1":"ENG","lng":"-2.36172","geonameId":2656173,"toponymName":"Bath","countryId":"2635167","fcl":"P","population":94782,"countryCode":"GB","name":"Bath","fclName":"city, village,...","adminCodes1":{"ISO3166_2":"ENG"},"countryName":"United Kingdom","fcodeName":"seat of a second-order administrative division","adminName1":"England","lat":"51.3751","fcode":"PPLA2"},{"adminCode1":"ENG","lng":"-1.08708","geonameId":2656192,"toponymName":"Basingstoke","countryId":"2635167","fcl":"P","population":107642,"countryCode":"GB","name":"Basingstoke","fclName":"city, village,...","adminCodes1":{"ISO3166_2":"ENG"},"countryName":"United Kingdom","fcodeName":"populated place","adminName1":"England","lat":"51.26249","fcode":"PPL"},{"adminCode1":"ENG","lng":"-0.2","geonameId":2656295,"toponymName":"Barnet","countryId":"2635167","fcl":"P","population":30000,"countryCode":"GB","name":"Barnet","fclName":"city, village,...","adminCodes1":{"ISO3166_2":"ENG"},"countryName":"United Kingdom","fcodeName":"populated place","adminName1":"England","lat":"51.65","fcode":"PPL"},{"adminCode1":"ENG","lng":"-1.94569","geonameId":2639557,"toponymName":"Redditch","countryId":"2635167","fcl":"P","population":84300,"countryCode":"GB","name":"Redditch","fclName":"city, village,...","adminCodes1":{"ISO3166_2":"ENG"},"countryName":"United Kingdom","fcodeName":"populated place","adminName1":"England","lat":"52.3065","fcode":"PPL"},{"adminCode1":"ENG","lng":"-0.97113","geonameId":2639577,"toponymName":"Reading","countryId":"2635167","fcl":"P","population":318014,"countryCode":"GB","name":"Reading","fclName":"city, village,...","adminCodes1":{"ISO3166_2":"ENG"},"countryName":"United Kingdom","fcodeName":"seat of a second-order administrative division","adminName1":"England","lat":"51.45625","fcode":"PPLA2"},{"adminCode1":"ENG","lng":"-2.70452","geonameId":2639912,"toponymName":"Preston","countryId":"2635167","fcl":"P","population":313332,"countryCode":"GB","name":"Preston","fclName":"city, village,...","adminCodes1":{"ISO3166_2":"ENG"},"countryName":"United Kingdom","fcodeName":"seat of a second-order administrative division","adminName1":"England","lat":"53.76282","fcode":"PPLA2"},{"adminCode1":"ENG","lng":"-1.98458","geonameId":2640101,"toponymName":"Poole","countryId":"2635167","fcl":"P","population":150092,"countryCode":"GB","name":"Poole","fclName":"city, village,...","adminCodes1":{"ISO3166_2":"ENG"},"countryName":"United Kingdom","fcodeName":"seat of a second-order administrative division","adminName1":"England","lat":"50.71429","fcode":"PPLA2"},{"adminCode1":"ENG","lng":"-0.24777","geonameId":2640354,"toponymName":"Peterborough","countryId":"2635167","fcl":"P","population":163379,"countryCode":"GB","name":"Peterborough","fclName":"city, village,...","adminCodes1":{"ISO3166_2":"ENG"},"countryName":"United Kingdom","fcodeName":"seat of a second-order administrative division","adminName1":"England","lat":"52.57364","fcode":"PPLA2"},{"adminCode1":"ENG","lng":"-2.1183","geonameId":2641022,"toponymName":"Oldham","countryId":"2635167","fcl":"P","population":104782,"countryCode":"GB","name":"Oldham","fclName":"city, village,...","adminCodes1":{"ISO3166_2":"ENG"},"countryName":"United Kingdom","fcodeName":"seat of a second-order administrative division","adminName1":"England","lat":"53.54051","fcode":"PPLA2"},{"adminCode1":"ENG","lng":"-1.46523","geonameId":2641157,"toponymName":"Nuneaton","countryId":"2635167","fcl":"P","population":92698,"countryCode":"GB","name":"Nuneaton","fclName":"city, village,...","adminCodes1":{"ISO3166_2":"ENG"},"countryName":"United Kingdom","fcodeName":"populated place","adminName1":"England","lat":"52.52323","fcode":"PPL"},{"adminCode1":"ENG","lng":"1.29834","geonameId":2641181,"toponymName":"Norwich","countryId":"2635167","fcl":"P","population":213166,"countryCode":"GB","name":"Norwich","fclName":"city, village,...","adminCodes1":{"ISO3166_2":"ENG"},"countryName":"United Kingdom","fcodeName":"seat of a second-order administrative division","adminName1":"England","lat":"52.62783","fcode":"PPLA2"},{"adminCode1":"ENG","lng":"-0.88333","geonameId":2641430,"toponymName":"Northampton","countryId":"2635167","fcl":"P","population":215963,"countryCode":"GB","name":"Northampton","fclName":"city, village,...","adminCodes1":{"ISO3166_2":"ENG"},"countryName":"United Kingdom","fcodeName":"seat of a second-order administrative division","adminName1":"England","lat":"52.25","fcode":"PPLA2"},{"adminCode1":"ENG","lng":"-0.75583","geonameId":2642465,"toponymName":"Milton Keynes","countryId":"2635167","fcl":"P","population":229941,"countryCode":"GB","name":"Milton Keynes","fclName":"city, village,...","adminCodes1":{"ISO3166_2":"ENG"},"countryName":"United Kingdom","fcodeName":"seat of a second-order administrative division","adminName1":"England","lat":"52.04172","fcode":"PPLA2"},{"adminCode1":"ENG","lng":"-1.2","geonameId":2643097,"toponymName":"Mansfield","countryId":"2635167","fcl":"P","population":171958,"countryCode":"GB","name":"Mansfield","fclName":"city, village,...","adminCodes1":{"ISO3166_2":"ENG"},"countryName":"United Kingdom","fcodeName":"populated place","adminName1":"England","lat":"53.13333","fcode":"PPL"},{"adminCode1":"ENG","lng":"0.51667","geonameId":2643179,"toponymName":"Maidstone","countryId":"2635167","fcl":"P","population":107627,"countryCode":"GB","name":"Maidstone","fclName":"city, village,...","adminCodes1":{"ISO3166_2":"ENG"},"countryName":"United Kingdom","fcodeName":"seat of a second-order administrative division","adminName1":"England","lat":"51.26667","fcode":"PPLA2"},{"adminCode1":"ENG","lng":"-0.41748","geonameId":2643339,"toponymName":"Luton","countryId":"2635167","fcl":"P","population":258018,"countryCode":"GB","name":"Luton","fclName":"city, village,...","adminCodes1":{"ISO3166_2":"ENG"},"countryName":"United Kingdom","fcodeName":"seat of a second-order administrative division","adminName1":"England","lat":"51.87967","fcode":"PPLA2"},{"adminCode1":"ENG","lng":"-1.52","geonameId":2644737,"toponymName":"Royal Leamington Spa","countryId":"2635167","fcl":"P","population":95172,"countryCode":"GB","name":"Royal Leamington Spa","fclName":"city, village,...","adminCodes1":{"ISO3166_2":"ENG"},"countryName":"United Kingdom","fcodeName":"populated place","adminName1":"England","lat":"52.2852","fcode":"PPL"},{"adminCode1":"ENG","lng":"-0.33525","geonameId":2645425,"toponymName":"Kingston upon Hull","countryId":"2635167","fcl":"P","population":314018,"countryCode":"GB","name":"Hull","fclName":"city, village,...","adminCodes1":{"ISO3166_2":"ENG"},"countryName":"United Kingdom","fcodeName":"seat of a second-order administrative division","adminName1":"England","lat":"53.7446","fcode":"PPLA2"},{"adminCode1":"ENG","lng":"1.15545","geonameId":2646057,"toponymName":"Ipswich","countryId":"2635167","fcl":"P","population":178835,"countryCode":"GB","name":"Ipswich","fclName":"city, village,...","adminCodes1":{"ISO3166_2":"ENG"},"countryName":"United Kingdom","fcodeName":"seat of a second-order administrative division","adminName1":"England","lat":"52.05917","fcode":"PPLA2"},{"adminCode1":"ENG","lng":"-1.78416","geonameId":2646458,"toponymName":"Huddersfield","countryId":"2635167","fcl":"P","population":149017,"countryCode":"GB","name":"Huddersfield","fclName":"city, village,...","adminCodes1":{"ISO3166_2":"ENG"},"countryName":"United Kingdom","fcodeName":"seat of a second-order administrative division","adminName1":"England","lat":"53.64904","fcode":"PPLA2"},{"adminCode1":"ENG","lng":"-0.74934","geonameId":2646914,"toponymName":"High Wycombe","countryId":"2635167","fcl":"P","population":133204,"countryCode":"GB","name":"High Wycombe","fclName":"city, village,...","adminCodes1":{"ISO3166_2":"ENG"},"countryName":"United Kingdom","fcodeName":"populated place","adminName1":"England","lat":"51.62907","fcode":"PPL"},{"adminCode1":"ENG","lng":"-0.44975","geonameId":2647138,"toponymName":"Hemel Hempstead","countryId":"2635167","fcl":"P","population":85629,"countryCode":"GB","name":"Hemel Hempstead","fclName":"city, village,...","adminCodes1":{"ISO3166_2":"ENG"},"countryName":"United Kingdom","fcodeName":"populated place","adminName1":"England","lat":"51.75368","fcode":"PPL"},{"adminCode1":"ENG","lng":"-1.5373","geonameId":2647428,"toponymName":"Harrogate","countryId":"2635167","fcl":"P","population":89060,"countryCode":"GB","name":"Harrogate","fclName":"city, village,...","adminCodes1":{"ISO3166_2":"ENG"},"countryName":"United Kingdom","fcodeName":"populated place","adminName1":"England","lat":"53.99078","fcode":"PPL"},{"adminCode1":"ENG","lng":"0.11158","geonameId":2647461,"toponymName":"Harlow","countryId":"2635167","fcl":"P","population":94365,"countryCode":"GB","name":"Harlow","fclName":"city, village,...","adminCodes1":{"ISO3166_2":"ENG"},"countryName":"United Kingdom","fcodeName":"populated place","adminName1":"England","lat":"51.77655","fcode":"PPL"},{"adminCode1":"ENG","lng":"-0.57427","geonameId":2647793,"toponymName":"Guildford","countryId":"2635167","fcl":"P","population":71873,"countryCode":"GB","name":"Guildford","fclName":"city, village,...","adminCodes1":{"ISO3166_2":"ENG"},"countryName":"United Kingdom","fcodeName":"populated place","adminName1":"England","lat":"51.23536","fcode":"PPL"},{"adminCode1":"ENG","lng":"0.54863","geonameId":2648657,"toponymName":"Gillingham","countryId":"2635167","fcl":"P","population":101187,"countryCode":"GB","name":"Gillingham","fclName":"city, village,...","adminCodes1":{"ISO3166_2":"ENG"},"countryName":"United Kingdom","fcodeName":"populated place","adminName1":"England","lat":"51.38914","fcode":"PPL"},{"adminCode1":"ENG","lng":"-1.60168","geonameId":2648773,"toponymName":"Gateshead","countryId":"2635167","fcl":"P","population":77649,"countryCode":"GB","name":"Gateshead","fclName":"city, village,...","adminCodes1":{"ISO3166_2":"ENG"},"countryName":"United Kingdom","fcodeName":"seat of a second-order administrative division","adminName1":"England","lat":"54.96209","fcode":"PPLA2"},{"adminCode1":"ENG","lng":"-2.63706","geonameId":2633948,"toponymName":"Wigan","countryId":"2635167","fcl":"P","population":175405,"countryCode":"GB","name":"Wigan","fclName":"city, village,...","adminCodes1":{"ISO3166_2":"ENG"},"countryName":"United Kingdom","fcodeName":"seat of a second-order administrative division","adminName1":"England","lat":"53.54296","fcode":"PPLA2"},{"adminCode1":"ENG","lng":"-1.9945","geonameId":2634491,"toponymName":"West Bromwich","countryId":"2635167","fcl":"P","population":135618,"countryCode":"GB","name":"West Bromwich","fclName":"city, village,...","adminCodes1":{"ISO3166_2":"ENG"},"countryName":"United Kingdom","fcodeName":"populated place","adminName1":"England","lat":"52.51868","fcode":"PPL"},{"adminCode1":"ENG","lng":"-2.58024","geonameId":2634739,"toponymName":"Warrington","countryId":"2635167","fcl":"P","population":165456,"countryCode":"GB","name":"Warrington","fclName":"city, village,...","adminCodes1":{"ISO3166_2":"ENG"},"countryName":"United Kingdom","fcodeName":"seat of a second-order administrative division","adminName1":"England","lat":"53.39254","fcode":"PPLA2"},{"adminCode1":"ENG","lng":"-1.98396","geonameId":2634853,"toponymName":"Walsall","countryId":"2635167","fcl":"P","population":172141,"countryCode":"GB","name":"Walsall","fclName":"city, village,...","adminCodes1":{"ISO3166_2":"ENG"},"countryName":"United Kingdom","fcodeName":"seat of a second-order administrative division","adminName1":"England","lat":"52.58528","fcode":"PPLA2"},{"adminCode1":"ENG","lng":"-1.49768","geonameId":2634910,"toponymName":"Wakefield","countryId":"2635167","fcl":"P","population":78978,"countryCode":"GB","name":"Wakefield","fclName":"city, village,...","adminCodes1":{"ISO3166_2":"ENG"},"countryName":"United Kingdom","fcodeName":"seat of a second-order administrative division","adminName1":"England","lat":"53.68331","fcode":"PPLA2"},{"adminCode1":"9782189","lng":"-4.75099","geonameId":3042196,"toponymName":"Port Erin","countryId":"3042225","fcl":"P","population":3530,"countryCode":"IM","name":"Port Erin","fclName":"city, village,...","countryName":"Isle of Man","fcodeName":"seat of a first-order administrative division","adminName1":"Port Erin","lat":"54.08487","fcode":"PPLA"},{"adminCode1":"9782173","lng":"-4.39985","geonameId":3042217,"toponymName":"Laxey","countryId":"3042225","fcl":"P","population":1768,"countryCode":"IM","name":"Laxey","fclName":"city, village,...","countryName":"Isle of Man","fcodeName":"seat of a first-order administrative division","adminName1":"Laxey","lat":"54.23017","fcode":"PPLA"},{"adminCode1":"ENG","lng":"-6.29894","geonameId":8299858,"toponymName":"Isles of Scilly","countryId":"2635167","fcl":"P","population":2100,"countryCode":"GB","name":"Isles of Scilly","fclName":"city, village,...","adminCodes1":{"ISO3166_2":"ENG"},"countryName":"United Kingdom","fcodeName":"populated locality","adminName1":"England","lat":"49.92515","fcode":"PPLL"},{"adminCode1":"SCT","lng":"-6.23886","geonameId":8299862,"toponymName":"Isle of Islay","countryId":"2635167","fcl":"P","population":3457,"countryCode":"GB","name":"Islay","fclName":"city, village,...","adminCodes1":{"ISO3166_2":"SCT"},"countryName":"United Kingdom","fcodeName":"populated locality","adminName1":"Scotland","lat":"55.78526","fcode":"PPLL"},{"adminCode1":"WLS","lng":"-2.71363","geonameId":2642313,"toponymName":"Monmouth","countryId":"2635167","fcl":"P","population":10110,"countryCode":"GB","name":"Monmouth","fclName":"city, village,...","adminCodes1":{"ISO3166_2":"WLS"},"countryName":"United Kingdom","fcodeName":"populated place","adminName1":"Wales","lat":"51.81265","fcode":"PPL"},{"adminCode1":"NIR","lng":"-7.30934","geonameId":2643736,"toponymName":"Derry","countryId":"2635167","fcl":"P","population":83652,"countryCode":"GB","name":"Londonderry","fclName":"city, village,...","adminCodes1":{"ISO3166_2":"NIR"},"countryName":"United Kingdom","fcodeName":"seat of a second-order administrative division","adminName1":"Northern Ireland","lat":"54.9981","fcode":"PPLA2"},{"adminCode1":"ENG","lng":"-0.07553","geonameId":2647878,"toponymName":"Grimsby","countryId":"2635167","fcl":"P","population":134160,"countryCode":"GB","name":"Grimsby","fclName":"city, village,...","adminCodes1":{"ISO3166_2":"ENG"},"countryName":"United Kingdom","fcodeName":"seat of a second-order administrative division","adminName1":"England","lat":"53.56539","fcode":"PPLA2"},{"adminCode1":"SCT","lng":"-4.17669","geonameId":2650405,"toponymName":"East Kilbride","countryId":"2635167","fcl":"P","population":74740,"countryCode":"GB","name":"East Kilbride","fclName":"city, village,...","adminCodes1":{"ISO3166_2":"SCT"},"countryName":"United Kingdom","fcodeName":"populated place","adminName1":"Scotland","lat":"55.76412","fcode":"PPL"},{"adminCode1":"ENG","lng":"-1.57566","geonameId":2650628,"toponymName":"Durham","countryId":"2635167","fcl":"P","population":47785,"countryCode":"GB","name":"Durham","fclName":"city, village,...","adminCodes1":{"ISO3166_2":"ENG"},"countryName":"United Kingdom","fcodeName":"seat of a second-order administrative division","adminName1":"England","lat":"54.77676","fcode":"PPLA2"},{"adminCode1":"ENG","lng":"0.21423","geonameId":2651500,"toponymName":"Dartford","countryId":"2635167","fcl":"P","population":56694,"countryCode":"GB","name":"Dartford","fclName":"city, village,...","adminCodes1":{"ISO3166_2":"ENG"},"countryName":"United Kingdom","fcodeName":"populated place","adminName1":"England","lat":"51.44657","fcode":"PPL"},{"adminCode1":"ENG","lng":"0.16667","geonameId":2651621,"toponymName":"Dagenham","countryId":"2635167","fcl":"P","population":108368,"countryCode":"GB","name":"Dagenham","fclName":"city, village,...","adminCodes1":{"ISO3166_2":"ENG"},"countryName":"United Kingdom","fcodeName":"seat of a third-order administrative division","adminName1":"England","lat":"51.55","fcode":"PPLA3"},{"adminCode1":"SCT","lng":"-3.99051","geonameId":2651715,"toponymName":"Cumbernauld","countryId":"2635167","fcl":"P","population":51610,"countryCode":"GB","name":"Cumbernauld","fclName":"city, village,...","adminCodes1":{"ISO3166_2":"SCT"},"countryName":"United Kingdom","fcodeName":"populated place","adminName1":"Scotland","lat":"55.94685","fcode":"PPL"},{"adminCode1":"ENG","lng":"-0.1","geonameId":2651817,"toponymName":"Croydon","countryId":"2635167","fcl":"P","population":173314,"countryCode":"GB","name":"Croydon","fclName":"city, village,...","adminCodes1":{"ISO3166_2":"ENG"},"countryName":"United Kingdom","fcodeName":"seat of a third-order administrative division","adminName1":"England","lat":"51.38333","fcode":"PPLA3"},{"adminCode1":"ENG","lng":"-0.68939","geonameId":2652381,"toponymName":"Corby","countryId":"2635167","fcl":"P","population":56810,"countryCode":"GB","name":"Corby","fclName":"city, village,...","adminCodes1":{"ISO3166_2":"ENG"},"countryName":"United Kingdom","fcodeName":"populated place","adminName1":"England","lat":"52.49637","fcode":"PPL"},{"adminCode1":"WLS","lng":"-3.72674","geonameId":2652513,"toponymName":"Colwyn Bay","countryId":"2635167","fcl":"P","population":34284,"countryCode":"GB","name":"Colwyn Bay","fclName":"city, village,...","adminCodes1":{"ISO3166_2":"WLS"},"countryName":"United Kingdom","fcodeName":"populated place","adminName1":"Wales","lat":"53.29483","fcode":"PPL"},{"adminCode1":"SCT","lng":"-4.02469","geonameId":2652696,"toponymName":"Coatbridge","countryId":"2635167","fcl":"P","population":43970,"countryCode":"GB","name":"Coatbridge","fclName":"city, village,...","adminCodes1":{"ISO3166_2":"SCT"},"countryName":"United Kingdom","fcodeName":"populated place","adminName1":"Scotland","lat":"55.86216","fcode":"PPL"},{"adminCode1":"ENG","lng":"1.15597","geonameId":2652974,"toponymName":"Clacton-on-Sea","countryId":"2635167","fcl":"P","population":50548,"countryCode":"GB","name":"Clacton-on-Sea","fclName":"city, village,...","adminCodes1":{"ISO3166_2":"ENG"},"countryName":"United Kingdom","fcodeName":"populated place","adminName1":"England","lat":"51.78967","fcode":"PPL"},{"adminCode1":"ENG","lng":"-0.78003","geonameId":2653192,"toponymName":"Chichester","countryId":"2635167","fcl":"P","population":31654,"countryCode":"GB","name":"Chichester","fclName":"city, village,...","adminCodes1":{"ISO3166_2":"ENG"},"countryName":"United Kingdom","fcodeName":"seat of a second-order administrative division","adminName1":"England","lat":"50.83673","fcode":"PPLA2"},{"adminCode1":"ENG","lng":"0.52786","geonameId":2653305,"toponymName":"Chatham","countryId":"2635167","fcl":"P","population":75509,"countryCode":"GB","name":"Chatham","fclName":"city, village,...","adminCodes1":{"ISO3166_2":"ENG"},"countryName":"United Kingdom","fcodeName":"populated place","adminName1":"England","lat":"51.37891","fcode":"PPL"},{"adminCode1":"ENG","lng":"-3.52522","geonameId":2635650,"toponymName":"Torquay","countryId":"2635167","fcl":"P","population":65388,"countryCode":"GB","name":"Torquay","fclName":"city, village,...","adminCodes1":{"ISO3166_2":"ENG"},"countryName":"United Kingdom","fcodeName":"seat of a second-order administrative division","adminName1":"England","lat":"50.46198","fcode":"PPLA2"},{"adminCode1":"ENG","lng":"-3.10293","geonameId":2636177,"toponymName":"Taunton","countryId":"2635167","fcl":"P","population":64621,"countryCode":"GB","name":"Taunton","fclName":"city, village,...","adminCodes1":{"ISO3166_2":"ENG"},"countryName":"United Kingdom","fcodeName":"seat of a second-order administrative division","adminName1":"England","lat":"51.01494","fcode":"PPLA2"},{"adminCode1":"ENG","lng":"-0.2","geonameId":2636503,"toponymName":"Sutton","countryId":"2635167","fcl":"P","population":187600,"countryCode":"GB","name":"Sutton","fclName":"city, village,...","adminCodes1":{"ISO3166_2":"ENG"},"countryName":"United Kingdom","fcodeName":"seat of a third-order administrative division","adminName1":"England","lat":"51.35","fcode":"PPLA3"},{"adminCode1":"ENG","lng":"-1.3187","geonameId":2636876,"toponymName":"Stockton-on-Tees","countryId":"2635167","fcl":"P","population":79957,"countryCode":"GB","name":"Stockton-on-Tees","fclName":"city, village,...","adminCodes1":{"ISO3166_2":"ENG"},"countryName":"United Kingdom","fcodeName":"seat of a second-order administrative division","adminName1":"England","lat":"54.56848","fcode":"PPLA2"},{"adminCode1":"SCT","lng":"-3.93682","geonameId":2636910,"toponymName":"Stirling","countryId":"2635167","fcl":"P","population":36440,"countryCode":"GB","name":"Stirling","fclName":"city, village,...","adminCodes1":{"ISO3166_2":"SCT"},"countryName":"United Kingdom","fcodeName":"seat of a second-order administrative division","adminName1":"Scotland","lat":"56.11903","fcode":"PPLA2"},{"adminCode1":"ENG","lng":"-2.11636","geonameId":2637142,"toponymName":"Stafford","countryId":"2635167","fcl":"P","population":69217,"countryCode":"GB","name":"Stafford","fclName":"city, village,...","adminCodes1":{"ISO3166_2":"ENG"},"countryName":"United Kingdom","fcodeName":"seat of a second-order administrative division","adminName1":"England","lat":"52.80521","fcode":"PPLA2"},{"adminCode1":"ENG","lng":"-1.4323","geonameId":2637329,"toponymName":"South Shields","countryId":"2635167","fcl":"P","population":83655,"countryCode":"GB","name":"South Shields","fclName":"city, village,...","adminCodes1":{"ISO3166_2":"ENG"},"countryName":"United Kingdom","fcodeName":"seat of a second-order administrative division","adminName1":"England","lat":"54.99859","fcode":"PPLA2"},{"adminCode1":"ENG","lng":"-3.01008","geonameId":2637343,"toponymName":"Southport","countryId":"2635167","fcl":"P","population":91703,"countryCode":"GB","name":"Southport","fclName":"city, village,...","adminCodes1":{"ISO3166_2":"ENG"},"countryName":"United Kingdom","fcodeName":"seat of a second-order administrative division","adminName1":"England","lat":"53.64581","fcode":"PPLA2"},{"adminCode1":"ENG","lng":"-0.3713","geonameId":2637490,"toponymName":"Southall","countryId":"2635167","fcl":"P","population":70000,"countryCode":"GB","name":"Southall","fclName":"city, village,...","adminCodes1":{"ISO3166_2":"ENG"},"countryName":"United Kingdom","fcodeName":"populated place","adminName1":"England","lat":"51.50896","fcode":"PPL"},{"adminCode1":"ENG","lng":"-1.78094","geonameId":2637546,"toponymName":"Solihull","countryId":"2635167","fcl":"P","population":96267,"countryCode":"GB","name":"Solihull","fclName":"city, village,...","adminCodes1":{"ISO3166_2":"ENG"},"countryName":"United Kingdom","fcodeName":"seat of a second-order administrative division","adminName1":"England","lat":"52.41426","fcode":"PPLA2"},{"adminCode1":"ENG","lng":"-2.75208","geonameId":2637891,"toponymName":"Shrewsbury","countryId":"2635167","fcl":"P","population":71715,"countryCode":"GB","name":"Shrewsbury","fclName":"city, village,...","adminCodes1":{"ISO3166_2":"ENG"},"countryName":"United Kingdom","fcodeName":"seat of a second-order administrative division","adminName1":"England","lat":"52.71009","fcode":"PPLA2"},{"adminCode1":"ENG","lng":"-0.65437","geonameId":2638324,"toponymName":"Scunthorpe","countryId":"2635167","fcl":"P","population":79977,"countryCode":"GB","name":"Scunthorpe","fclName":"city, village,...","adminCodes1":{"ISO3166_2":"ENG"},"countryName":"United Kingdom","fcodeName":"seat of a second-order administrative division","adminName1":"England","lat":"53.57905","fcode":"PPLA2"},{"adminCode1":"ENG","lng":"-1.79569","geonameId":2638664,"toponymName":"Salisbury","countryId":"2635167","fcl":"P","population":44748,"countryCode":"GB","name":"Salisbury","fclName":"city, village,...","adminCodes1":{"ISO3166_2":"ENG"},"countryName":"United Kingdom","fcodeName":"seat of a third-order administrative division","adminName1":"England","lat":"51.06931","fcode":"PPLA3"},{"adminCode1":"ENG","lng":"-2.29042","geonameId":2638671,"toponymName":"Salford","countryId":"2635167","fcl":"P","population":72750,"countryCode":"GB","name":"Salford","fclName":"city, village,...","adminCodes1":{"ISO3166_2":"ENG"},"countryName":"United Kingdom","fcodeName":"seat of a second-order administrative division","adminName1":"England","lat":"53.48771","fcode":"PPLA2"},{"adminCode1":"ENG","lng":"-1.26417","geonameId":2638978,"toponymName":"Rugby","countryId":"2635167","fcl":"P","population":73150,"countryCode":"GB","name":"Rugby","fclName":"city, village,...","adminCodes1":{"ISO3166_2":"ENG"},"countryName":"United Kingdom","fcodeName":"populated place","adminName1":"England","lat":"52.37092","fcode":"PPL"},{"adminCode1":"ENG","lng":"-2.03085","geonameId":2653883,"toponymName":"Cannock","countryId":"2635167","fcl":"P","population":86121,"countryCode":"GB","name":"Cannock","fclName":"city, village,...","adminCodes1":{"ISO3166_2":"ENG"},"countryName":"United Kingdom","fcodeName":"populated place","adminName1":"England","lat":"52.69045","fcode":"PPL"},{"adminCode1":"ENG","lng":"0.71111","geonameId":2654186,"toponymName":"Bury St Edmunds","countryId":"2635167","fcl":"P","population":42812,"countryCode":"GB","name":"Bury St","fclName":"city, village,...","adminCodes1":{"ISO3166_2":"ENG"},"countryName":"United Kingdom","fcodeName":"populated place","adminName1":"England","lat":"52.2463","fcode":"PPL"},{"adminCode1":"ENG","lng":"-2.3","geonameId":2654187,"toponymName":"Bury","countryId":"2635167","fcl":"P","population":61044,"countryCode":"GB","name":"Bury","fclName":"city, village,...","adminCodes1":{"ISO3166_2":"ENG"},"countryName":"United Kingdom","fcodeName":"seat of a second-order administrative division","adminName1":"England","lat":"53.6","fcode":"PPLA2"},{"adminCode1":"ENG","lng":"0.30556","geonameId":2654782,"toponymName":"Brentwood","countryId":"2635167","fcl":"P","population":52586,"countryCode":"GB","name":"Brentwood","fclName":"city, village,...","adminCodes1":{"ISO3166_2":"ENG"},"countryName":"United Kingdom","fcodeName":"populated place","adminName1":"England","lat":"51.62127","fcode":"PPL"},{"adminCode1":"ENG","lng":"0.55292","geonameId":2654938,"toponymName":"Braintree","countryId":"2635167","fcl":"P","population":53477,"countryCode":"GB","name":"Braintree","fclName":"city, village,...","adminCodes1":{"ISO3166_2":"ENG"},"countryName":"United Kingdom","fcodeName":"populated place","adminName1":"England","lat":"51.87819","fcode":"PPL"},{"adminCode1":"ENG","lng":"-0.02664","geonameId":2655138,"toponymName":"Boston","countryId":"2635167","fcl":"P","population":41340,"countryCode":"GB","name":"Boston","fclName":"city, village,...","adminCodes1":{"ISO3166_2":"ENG"},"countryName":"United Kingdom","fcodeName":"populated place","adminName1":"England","lat":"52.97633","fcode":"PPL"},{"adminCode1":"ENG","lng":"-0.67978","geonameId":2655262,"toponymName":"Bognor Regis","countryId":"2635167","fcl":"P","population":63885,"countryCode":"GB","name":"Bognor Regis","fclName":"city, village,...","adminCodes1":{"ISO3166_2":"ENG"},"countryName":"United Kingdom","fcodeName":"populated place","adminName1":"England","lat":"50.78206","fcode":"PPL"},{"adminCode1":"ENG","lng":"-2.01186","geonameId":2655819,"toponymName":"Berwick-Upon-Tweed","countryId":"2635167","fcl":"P","population":13265,"countryCode":"GB","name":"Berwick","fclName":"city, village,...","adminCodes1":{"ISO3166_2":"ENG"},"countryName":"United Kingdom","fcodeName":"populated place","adminName1":"England","lat":"55.76536","fcode":"PPL"},{"adminCode1":"ENG","lng":"-0.02526","geonameId":2656065,"toponymName":"Beckenham","countryId":"2635167","fcl":"P","population":82000,"countryCode":"GB","name":"Beckenham","fclName":"city, village,...","adminCodes1":{"ISO3166_2":"ENG"},"countryName":"United Kingdom","fcodeName":"populated place","adminName1":"England","lat":"51.40878","fcode":"PPL"},{"adminCode1":"WLS","lng":"-3.2838","geonameId":2656235,"toponymName":"Barry","countryId":"2635167","fcl":"P","population":54673,"countryCode":"GB","name":"Barry","fclName":"city, village,...","adminCodes1":{"ISO3166_2":"WLS"},"countryName":"United Kingdom","fcodeName":"seat of a second-order administrative division","adminName1":"Wales","lat":"51.39979","fcode":"PPLA2"},{"adminCode1":"ENG","lng":"-1.48333","geonameId":2656284,"toponymName":"Barnsley","countryId":"2635167","fcl":"P","population":71447,"countryCode":"GB","name":"Barnsley","fclName":"city, village,...","adminCodes1":{"ISO3166_2":"ENG"},"countryName":"United Kingdom","fcodeName":"seat of a second-order administrative division","adminName1":"England","lat":"53.55","fcode":"PPLA2"},{"adminCode1":"ENG","lng":"0.08333","geonameId":2656333,"toponymName":"Barking","countryId":"2635167","fcl":"P","population":61000,"countryCode":"GB","name":"Barking","fclName":"city, village,...","adminCodes1":{"ISO3166_2":"ENG"},"countryName":"United Kingdom","fcodeName":"populated place","adminName1":"England","lat":"51.53333","fcode":"PPL"},{"adminCode1":"SCT","lng":"-4.63393","geonameId":2656708,"toponymName":"Ayr","countryId":"2635167","fcl":"P","population":47190,"countryCode":"GB","name":"Ayr","fclName":"city, village,...","adminCodes1":{"ISO3166_2":"SCT"},"countryName":"United Kingdom","fcodeName":"seat of a second-order administrative division","adminName1":"Scotland","lat":"55.46273","fcode":"PPLA2"},{"adminCode1":"ENG","lng":"-0.81458","geonameId":2656719,"toponymName":"Aylesbury","countryId":"2635167","fcl":"P","population":74748,"countryCode":"GB","name":"Aylesbury","fclName":"city, village,...","adminCodes1":{"ISO3166_2":"ENG"},"countryName":"United Kingdom","fcodeName":"seat of a second-order administrative division","adminName1":"England","lat":"51.81665","fcode":"PPLA2"},{"adminCode1":"ENG","lng":"0.87376","geonameId":2656955,"toponymName":"Ashford","countryId":"2635167","fcl":"P","population":62787,"countryCode":"GB","name":"Ashford","fclName":"city, village,...","adminCodes1":{"ISO3166_2":"ENG"},"countryName":"United Kingdom","fcodeName":"seat of a third-order administrative division","adminName1":"England","lat":"51.14648","fcode":"PPLA3"},{"adminCode1":"ENG","lng":"-2.1552","geonameId":2639272,"toponymName":"Rochdale","countryId":"2635167","fcl":"P","population":97550,"countryCode":"GB","name":"Rochdale","fclName":"city, village,...","adminCodes1":{"ISO3166_2":"ENG"},"countryName":"United Kingdom","fcodeName":"seat of a second-order administrative division","adminName1":"England","lat":"53.61766","fcode":"PPLA2"},{"adminCode1":"SCT","lng":"-3.43139","geonameId":2640358,"toponymName":"Perth","countryId":"2635167","fcl":"P","population":47180,"countryCode":"GB","name":"Perth","fclName":"city, village,...","adminCodes1":{"ISO3166_2":"SCT"},"countryName":"United Kingdom","fcodeName":"seat of a second-order administrative division","adminName1":"Scotland","lat":"56.39522","fcode":"PPLA2"},{"adminCode1":"SCT","lng":"-4.43254","geonameId":2640677,"toponymName":"Paisley","countryId":"2635167","fcl":"P","population":76220,"countryCode":"GB","name":"Paisley","fclName":"city, village,...","adminCodes1":{"ISO3166_2":"SCT"},"countryName":"United Kingdom","fcodeName":"seat of a second-order administrative division","adminName1":"Scotland","lat":"55.83173","fcode":"PPLA2"},{"adminCode1":"ENG","lng":"-2.23333","geonameId":2641674,"toponymName":"Newcastle under Lyme","countryId":"2635167","fcl":"P","population":75794,"countryCode":"GB","name":"Newcastle-under-Lyme","fclName":"city, village,...","adminCodes1":{"ISO3166_2":"ENG"},"countryName":"United Kingdom","fcodeName":"populated place","adminName1":"England","lat":"53","fcode":"PPL"},{"adminCode1":"WLS","lng":"-3.37779","geonameId":2642705,"toponymName":"Merthyr Tydfil","countryId":"2635167","fcl":"P","population":43820,"countryCode":"GB","name":"Merthyr Tydfil","fclName":"city, village,...","adminCodes1":{"ISO3166_2":"WLS"},"countryName":"United Kingdom","fcodeName":"seat of a second-order administrative division","adminName1":"Wales","lat":"51.74794","fcode":"PPLA2"},{"adminCode1":"ENG","lng":"-0.71986","geonameId":2643186,"toponymName":"Maidenhead","countryId":"2635167","fcl":"P","population":64831,"countryCode":"GB","name":"Maidenhead","fclName":"city, village,...","adminCodes1":{"ISO3166_2":"ENG"},"countryName":"United Kingdom","fcodeName":"seat of a second-order administrative division","adminName1":"England","lat":"51.52279","fcode":"PPLA2"},{"adminCode1":"ENG","lng":"-2.12564","geonameId":2643266,"toponymName":"Macclesfield","countryId":"2635167","fcl":"P","population":63954,"countryCode":"GB","name":"Macclesfield","fclName":"city, village,...","adminCodes1":{"ISO3166_2":"ENG"},"countryName":"United Kingdom","fcodeName":"populated place","adminName1":"England","lat":"53.26023","fcode":"PPL"},{"adminCode1":"ENG","lng":"1.75167","geonameId":2643490,"toponymName":"Lowestoft","countryId":"2635167","fcl":"P","population":70945,"countryCode":"GB","name":"Lowestoft","fclName":"city, village,...","adminCodes1":{"ISO3166_2":"ENG"},"countryName":"United Kingdom","fcodeName":"populated place","adminName1":"England","lat":"52.47523","fcode":"PPL"},{"adminCode1":"ENG","lng":"-1.2","geonameId":2643567,"toponymName":"Loughborough","countryId":"2635167","fcl":"P","population":59932,"countryCode":"GB","name":"Loughborough","fclName":"city, village,...","adminCodes1":{"ISO3166_2":"ENG"},"countryName":"United Kingdom","fcodeName":"populated place","adminName1":"England","lat":"52.76667","fcode":"PPL"},{"adminCode1":"SCT","lng":"-3.52261","geonameId":2644204,"toponymName":"Livingston","countryId":"2635167","fcl":"P","population":56570,"countryCode":"GB","name":"Livingston","fclName":"city, village,...","adminCodes1":{"ISO3166_2":"SCT"},"countryName":"United Kingdom","fcodeName":"seat of a second-order administrative division","adminName1":"Scotland","lat":"55.90288","fcode":"PPLA2"},{"adminCode1":"NIR","lng":"-6.03527","geonameId":2644411,"toponymName":"Lisburn","countryId":"2635167","fcl":"P","population":77506,"countryCode":"GB","name":"Lisburn","fclName":"city, village,...","adminCodes1":{"ISO3166_2":"NIR"},"countryName":"United Kingdom","fcodeName":"seat of a second-order administrative division","adminName1":"Northern Ireland","lat":"54.52337","fcode":"PPLA2"},{"adminCode1":"ENG","lng":"-1.82549","geonameId":2644531,"toponymName":"Lichfield","countryId":"2635167","fcl":"P","population":32877,"countryCode":"GB","name":"Lichfield","fclName":"city, village,...","adminCodes1":{"ISO3166_2":"ENG"},"countryName":"United Kingdom","fcodeName":"populated place","adminName1":"England","lat":"52.68154","fcode":"PPL"},{"adminCode1":"ENG","lng":"-2.79988","geonameId":2644972,"toponymName":"Lancaster","countryId":"2635167","fcl":"P","population":47162,"countryCode":"GB","name":"Lancaster","fclName":"city, village,...","adminCodes1":{"ISO3166_2":"ENG"},"countryName":"United Kingdom","fcodeName":"populated place","adminName1":"England","lat":"54.04649","fcode":"PPL"},{"adminCode1":"SCT","lng":"-3.15999","geonameId":2645298,"toponymName":"Kirkcaldy","countryId":"2635167","fcl":"P","population":49460,"countryCode":"GB","name":"Kirkcaldy","fclName":"city, village,...","adminCodes1":{"ISO3166_2":"SCT"},"countryName":"United Kingdom","fcodeName":"populated place","adminName1":"Scotland","lat":"56.11683","fcode":"PPL"},{"adminCode1":"ENG","lng":"-0.72571","geonameId":2645753,"toponymName":"Kettering","countryId":"2635167","fcl":"P","population":63675,"countryCode":"GB","name":"Kettering","fclName":"city, village,...","adminCodes1":{"ISO3166_2":"ENG"},"countryName":"United Kingdom","fcodeName":"populated place","adminName1":"England","lat":"52.39836","fcode":"PPL"},{"adminCode1":"ENG","lng":"-0.10304","geonameId":2646003,"toponymName":"Islington","countryId":"2635167","fcl":"P","population":319143,"countryCode":"GB","name":"Islington","fclName":"city, village,...","adminCodes1":{"ISO3166_2":"ENG"},"countryName":"United Kingdom","fcodeName":"seat of a third-order administrative division","adminName1":"England","lat":"51.53622","fcode":"PPLA3"},{"adminCode1":"SCT","lng":"-4.22398","geonameId":2646088,"toponymName":"Inverness","countryId":"2635167","fcl":"P","population":46870,"countryCode":"GB","name":"Inverness","fclName":"city, village,...","adminCodes1":{"ISO3166_2":"SCT"},"countryName":"United Kingdom","fcodeName":"seat of a second-order administrative division","adminName1":"Scotland","lat":"57.47908","fcode":"PPLA2"},{"adminCode1":"ENG","lng":"-0.1672","geonameId":2646504,"toponymName":"Hove","countryId":"2635167","fcl":"P","population":75174,"countryCode":"GB","name":"Hove","fclName":"city, village,...","adminCodes1":{"ISO3166_2":"ENG"},"countryName":"United Kingdom","fcodeName":"populated place","adminName1":"England","lat":"50.83088","fcode":"PPL"},{"adminCode1":"ENG","lng":"-0.32757","geonameId":2646557,"toponymName":"Horsham","countryId":"2635167","fcl":"P","population":51472,"countryCode":"GB","name":"Horsham","fclName":"city, village,...","adminCodes1":{"ISO3166_2":"ENG"},"countryName":"United Kingdom","fcodeName":"populated place","adminName1":"England","lat":"51.06314","fcode":"PPL"},{"adminCode1":"ENG","lng":"-1.21028","geonameId":2647400,"toponymName":"Hartlepool","countryId":"2635167","fcl":"P","population":88855,"countryCode":"GB","name":"Hartlepool","fclName":"city, village,...","adminCodes1":{"ISO3166_2":"ENG"},"countryName":"United Kingdom","fcodeName":"seat of a second-order administrative division","adminName1":"England","lat":"54.68554","fcode":"PPLA2"},{"adminCode1":"SCT","lng":"-4.03333","geonameId":2647570,"toponymName":"Hamilton","countryId":"2635167","fcl":"P","population":53200,"countryCode":"GB","name":"Hamilton","fclName":"city, village,...","adminCodes1":{"ISO3166_2":"SCT"},"countryName":"United Kingdom","fcodeName":"seat of a second-order administrative division","adminName1":"Scotland","lat":"55.76667","fcode":"PPLA2"},{"adminCode1":"ENG","lng":"-1.85","geonameId":2647632,"toponymName":"Halifax","countryId":"2635167","fcl":"P","population":82624,"countryCode":"GB","name":"Halifax","fclName":"city, village,...","adminCodes1":{"ISO3166_2":"ENG"},"countryName":"United Kingdom","fcodeName":"seat of a second-order administrative division","adminName1":"England","lat":"53.71667","fcode":"PPLA2"},{"adminCode1":"SCT","lng":"-4.76121","geonameId":2647948,"toponymName":"Greenock","countryId":"2635167","fcl":"P","population":43690,"countryCode":"GB","name":"Greenock","fclName":"city, village,...","adminCodes1":{"ISO3166_2":"SCT"},"countryName":"United Kingdom","fcodeName":"seat of a second-order administrative division","adminName1":"Scotland","lat":"55.94838","fcode":"PPLA2"},{"adminCode1":"ENG","lng":"1.73052","geonameId":2647984,"toponymName":"Great Yarmouth","countryId":"2635167","fcl":"P","population":63434,"countryCode":"GB","name":"Great Yarmouth","fclName":"city, village,...","adminCodes1":{"ISO3166_2":"ENG"},"countryName":"United Kingdom","fcodeName":"populated place","adminName1":"England","lat":"52.60831","fcode":"PPL"},{"adminCode1":"ENG","lng":"0.32521","geonameId":2648182,"toponymName":"Grays","countryId":"2635167","fcl":"P","population":89755,"countryCode":"GB","name":"Grays","fclName":"city, village,...","adminCodes1":{"ISO3166_2":"ENG"},"countryName":"United Kingdom","fcodeName":"seat of a second-order administrative division","adminName1":"England","lat":"51.47566","fcode":"PPLA2"},{"adminCode1":"ENG","lng":"-1.12902","geonameId":2648272,"toponymName":"Gosport","countryId":"2635167","fcl":"P","population":70793,"countryCode":"GB","name":"Gosport","fclName":"city, village,...","adminCodes1":{"ISO3166_2":"ENG"},"countryName":"United Kingdom","fcodeName":"populated place","adminName1":"England","lat":"50.79509","fcode":"PPL"},{"adminCode1":"ENG","lng":"1.16734","geonameId":2649258,"toponymName":"Folkestone","countryId":"2635167","fcl":"P","population":66429,"countryCode":"GB","name":"Folkestone","fclName":"city, village,...","adminCodes1":{"ISO3166_2":"ENG"},"countryName":"United Kingdom","fcodeName":"populated place","adminName1":"England","lat":"51.08169","fcode":"PPL"},{"adminCode1":"ENG","lng":"-0.75565","geonameId":2649672,"toponymName":"Farnborough","countryId":"2635167","fcl":"P","population":59902,"countryCode":"GB","name":"Farnborough","fclName":"city, village,...","adminCodes1":{"ISO3166_2":"ENG"},"countryName":"United Kingdom","fcodeName":"populated place","adminName1":"England","lat":"51.29424","fcode":"PPL"},{"adminCode1":"ENG","lng":"-5.07113","geonameId":2649715,"toponymName":"Falmouth","countryId":"2635167","fcl":"P","population":31988,"countryCode":"GB","name":"Falmouth","fclName":"city, village,...","adminCodes1":{"ISO3166_2":"ENG"},"countryName":"United Kingdom","fcodeName":"seat of a third-order administrative division","adminName1":"England","lat":"50.15441","fcode":"PPLA3"},{"adminCode1":"ENG","lng":"0.26196","geonameId":2650023,"toponymName":"Ely","countryId":"2635167","fcl":"P","population":19090,"countryCode":"GB","name":"Ely","fclName":"city, village,...","adminCodes1":{"ISO3166_2":"ENG"},"countryName":"United Kingdom","fcodeName":"populated place","adminName1":"England","lat":"52.39964","fcode":"PPL"},{"adminCode1":"WLS","lng":"-2.99132","geonameId":2633485,"toponymName":"Wrexham","countryId":"2635167","fcl":"P","population":65692,"countryCode":"GB","name":"Wrexham","fclName":"city, village,...","adminCodes1":{"ISO3166_2":"WLS"},"countryName":"United Kingdom","fcodeName":"seat of a second-order administrative division","adminName1":"Wales","lat":"53.04664","fcode":"PPLA2"},{"adminCode1":"ENG","lng":"-0.37538","geonameId":2633521,"toponymName":"Worthing","countryId":"2635167","fcl":"P","population":99110,"countryCode":"GB","name":"Worthing","fclName":"city, village,...","adminCodes1":{"ISO3166_2":"ENG"},"countryName":"United Kingdom","fcodeName":"populated place","adminName1":"England","lat":"50.81795","fcode":"PPL"},{"adminCode1":"ENG","lng":"-1.3187","geonameId":2633858,"toponymName":"Winchester","countryId":"2635167","fcl":"P","population":46074,"countryCode":"GB","name":"Winchester","fclName":"city, village,...","adminCodes1":{"ISO3166_2":"ENG"},"countryName":"United Kingdom","fcodeName":"seat of a second-order administrative division","adminName1":"England","lat":"51.06513","fcode":"PPLA2"},{"adminCode1":"ENG","lng":"-2.45991","geonameId":2634202,"toponymName":"Weymouth","countryId":"2635167","fcl":"P","population":57691,"countryCode":"GB","name":"Weymouth","fclName":"city, village,...","adminCodes1":{"ISO3166_2":"ENG"},"countryName":"United Kingdom","fcodeName":"populated place","adminName1":"England","lat":"50.61448","fcode":"PPL"},{"adminCode1":"ENG","lng":"-2.97665","geonameId":2634308,"toponymName":"Weston-super-Mare","countryId":"2635167","fcl":"P","population":82903,"countryCode":"GB","name":"Weston-super-Mare","fclName":"city, village,...","adminCodes1":{"ISO3166_2":"ENG"},"countryName":"United Kingdom","fcodeName":"seat of a second-order administrative division","adminName1":"England","lat":"51.34603","fcode":"PPLA2"},{"adminCode1":"ENG","lng":"-0.20691","geonameId":2634552,"toponymName":"Welwyn Garden City","countryId":"2635167","fcl":"P","population":59910,"countryCode":"GB","name":"Welwyn Garden City","fclName":"city, village,...","adminCodes1":{"ISO3166_2":"ENG"},"countryName":"United Kingdom","fcodeName":"populated place","adminName1":"England","lat":"51.80174","fcode":"PPL"},{"adminCode1":"ENG","lng":"-0.69446","geonameId":2634578,"toponymName":"Wellingborough","countryId":"2635167","fcl":"P","population":50577,"countryCode":"GB","name":"Wellingborough","fclName":"city, village,...","adminCodes1":{"ISO3166_2":"ENG"},"countryName":"United Kingdom","fcodeName":"populated place","adminName1":"England","lat":"52.30273","fcode":"PPL"},{"adminCode1":"ENG","lng":"-0.76389","geonameId":2657540,"toponymName":"Aldershot","countryId":"2635167","fcl":"P","population":61339,"countryCode":"GB","name":"Aldershot","fclName":"city, village,...","adminCodes1":{"ISO3166_2":"ENG"},"countryName":"United Kingdom","fcodeName":"populated place","adminName1":"England","lat":"51.24827","fcode":"PPL"},{"adminCode1":"ENG","lng":"-1.28278","geonameId":2657780,"toponymName":"Abingdon","countryId":"2635167","fcl":"P","population":38676,"countryCode":"GB","name":"Abingdon","fclName":"city, village,...","adminCodes1":{"ISO3166_2":"ENG"},"countryName":"United Kingdom","fcodeName":"populated place","adminName1":"England","lat":"51.67109","fcode":"PPL"},{"adminCode1":"WLS","lng":"-3.44918","geonameId":2657835,"toponymName":"Aberdare","countryId":"2635167","fcl":"P","population":31135,"countryCode":"GB","name":"Aberdare","fclName":"city, village,...","adminCodes1":{"ISO3166_2":"WLS"},"countryName":"United Kingdom","fcodeName":"populated place","adminName1":"Wales","lat":"51.71438","fcode":"PPL"},{"adminCode1":"ENG","lng":"-2.44926","geonameId":3345439,"toponymName":"Telford","countryId":"2635167","fcl":"P","population":147980,"countryCode":"GB","name":"Telford","fclName":"city, village,...","adminCodes1":{"ISO3166_2":"ENG"},"countryName":"United Kingdom","fcodeName":"seat of a second-order administrative division","adminName1":"England","lat":"52.67659","fcode":"PPLA2"},{"adminCode1":"ENG","lng":"-1.84536","geonameId":8299617,"toponymName":"High Peak","countryId":"2635167","fcl":"P","population":92600,"countryCode":"GB","name":"High Peak","fclName":"city, village,...","adminCodes1":{"ISO3166_2":"ENG"},"countryName":"United Kingdom","fcodeName":"populated locality","adminName1":"England","lat":"53.36797","fcode":"PPLL"},{"adminCode1":"SCT","lng":"-2.95953","geonameId":8299623,"toponymName":"Orkney","countryId":"2635167","fcl":"P","population":20100,"countryCode":"GB","name":"Orkney","fclName":"city, village,...","adminCodes1":{"ISO3166_2":"SCT"},"countryName":"United Kingdom","fcodeName":"populated locality","adminName1":"Scotland","lat":"58.98465","fcode":"PPLL"},{"adminCode1":"ENG","lng":"1.41667","geonameId":2638703,"toponymName":"Saint Peters","countryId":"2635167","fcl":"P","population":125370,"countryCode":"GB","name":"Saint Peters","fclName":"city, village,...","adminCodes1":{"ISO3166_2":"ENG"},"countryName":"United Kingdom","fcodeName":"populated place","adminName1":"England","lat":"51.36667","fcode":"PPL"},{"adminCode1":"ENG","lng":"0.39516","geonameId":2645456,"toponymName":"King's Lynn","countryId":"2635167","fcl":"P","population":46093,"countryCode":"GB","name":"Kings Lynn","fclName":"city, village,...","adminCodes1":{"ISO3166_2":"ENG"},"countryName":"United Kingdom","fcodeName":"populated place","adminName1":"England","lat":"52.75172","fcode":"PPL"},{"adminCode1":"ENG","lng":"-0.6","geonameId":2633842,"toponymName":"Windsor","countryId":"2635167","fcl":"P","population":33348,"countryCode":"GB","name":"Windsor","fclName":"city, village,...","adminCodes1":{"ISO3166_2":"ENG"},"countryName":"United Kingdom","fcodeName":"populated place","adminName1":"England","lat":"51.48333","fcode":"PPL"},{"adminCode1":"SCT","lng":"-3.35635","geonameId":2643791,"toponymName":"Lockerbie","countryId":"2635167","fcl":"P","population":4290,"countryCode":"GB","name":"Lockerbie","fclName":"city, village,...","adminCodes1":{"ISO3166_2":"SCT"},"countryName":"United Kingdom","fcodeName":"populated place","adminName1":"Scotland","lat":"55.12302","fcode":"PPL"},{"adminCode1":"WLS","lng":"-4.20329","geonameId":2644080,"toponymName":"Llanfairpwllgwyngyll","countryId":"2635167","fcl":"P","population":3107,"countryCode":"GB","name":"Llanfairpwllgwyngyll","fclName":"city, village,...","adminCodes1":{"ISO3166_2":"WLS"},"countryName":"United Kingdom","fcodeName":"populated place","adminName1":"Wales","lat":"53.22141","fcode":"PPL"},{"adminCode1":"ENG","lng":"-0.60905","geonameId":2649873,"toponymName":"Eton","countryId":"2635167","fcl":"P","population":3025,"countryCode":"GB","name":"Eton","fclName":"city, village,...","adminCodes1":{"ISO3166_2":"ENG"},"countryName":"United Kingdom","fcodeName":"populated place","adminName1":"England","lat":"51.48833","fcode":"PPL"},{"adminCode1":"ENG","lng":"-0.2974","geonameId":6690829,"toponymName":"Kingston upon Thames","countryId":"2635167","fcl":"P","population":10001,"countryCode":"GB","name":"Kingston upon Thames","fclName":"city, village,...","adminCodes1":{"ISO3166_2":"ENG"},"countryName":"United Kingdom","fcodeName":"seat of a third-order administrative division","adminName1":"England","lat":"51.41259","fcode":"PPLA3"},{"adminCode1":"SCT","lng":"-5.02731","geonameId":2636719,"toponymName":"Stranraer","countryId":"2635167","fcl":"P","population":10510,"countryCode":"GB","name":"Stranraer","fclName":"city, village,...","adminCodes1":{"ISO3166_2":"SCT"},"countryName":"United Kingdom","fcodeName":"populated place","adminName1":"Scotland","lat":"54.90234","fcode":"PPL"},{"adminCode1":"WLS","lng":"-3.38887","geonameId":2654817,"toponymName":"Brecon","countryId":"2635167","fcl":"P","population":8250,"countryCode":"GB","name":"Brecon","fclName":"city, village,...","adminCodes1":{"ISO3166_2":"WLS"},"countryName":"United Kingdom","fcodeName":"populated place","adminName1":"Wales","lat":"51.94612","fcode":"PPL"},{"adminCode1":"SCT","lng":"-5.47184","geonameId":2641108,"toponymName":"Oban","countryId":"2635167","fcl":"P","population":8540,"countryCode":"GB","name":"Oban","fclName":"city, village,...","adminCodes1":{"ISO3166_2":"SCT"},"countryName":"United Kingdom","fcodeName":"populated place","adminName1":"Scotland","lat":"56.41535","fcode":"PPL"},{"adminCode1":"ENG","lng":"-2.71311","geonameId":2643425,"toponymName":"Ludlow","countryId":"2635167","fcl":"P","population":10515,"countryCode":"GB","name":"Ludlow","fclName":"city, village,...","adminCodes1":{"ISO3166_2":"ENG"},"countryName":"United Kingdom","fcodeName":"populated place","adminName1":"England","lat":"52.37431","fcode":"PPL"},{"adminCode1":"ENG","lng":"-0.09184","geonameId":2643741,"toponymName":"City of London","countryId":"2635167","fcl":"P","population":8072,"countryCode":"GB","name":"City of London","fclName":"city, village,...","adminCodes1":{"ISO3166_2":"ENG"},"countryName":"United Kingdom","fcodeName":"seat of a third-order administrative division","adminName1":"England","lat":"51.51279","fcode":"PPLA3"},{"adminCode1":"SCT","lng":"-3.60364","geonameId":2644444,"toponymName":"Linlithgow","countryId":"2635167","fcl":"P","population":13320,"countryCode":"GB","name":"Linlithgow","fclName":"city, village,...","adminCodes1":{"ISO3166_2":"SCT"},"countryName":"United Kingdom","fcodeName":"populated place","adminName1":"Scotland","lat":"55.97639","fcode":"PPL"},{"adminCode1":"SCT","lng":"-1.14427","geonameId":2644605,"toponymName":"Lerwick","countryId":"2635167","fcl":"P","population":7040,"countryCode":"GB","name":"Lerwick","fclName":"city, village,...","adminCodes1":{"ISO3166_2":"SCT"},"countryName":"United Kingdom","fcodeName":"seat of a second-order administrative division","adminName1":"Scotland","lat":"60.15339","fcode":"PPLA2"},{"adminCode1":"WLS","lng":"-4.63211","geonameId":2646686,"toponymName":"Holyhead","countryId":"2635167","fcl":"P","population":11431,"countryCode":"GB","name":"Holyhead","fclName":"city, village,...","adminCodes1":{"ISO3166_2":"WLS"},"countryName":"United Kingdom","fcodeName":"seat of a third-order administrative division","adminName1":"Wales","lat":"53.30621","fcode":"PPLA3"},{"adminCode1":"SCT","lng":"-4.72648","geonameId":2647178,"toponymName":"Helensburgh","countryId":"2635167","fcl":"P","population":13720,"countryCode":"GB","name":"Helensburgh","fclName":"city, village,...","adminCodes1":{"ISO3166_2":"SCT"},"countryName":"United Kingdom","fcodeName":"populated place","adminName1":"Scotland","lat":"56.00614","fcode":"PPL"},{"adminCode1":"ENG","lng":"-2.72075","geonameId":2648559,"toponymName":"Glastonbury","countryId":"2635167","fcl":"P","population":8471,"countryCode":"GB","name":"Glastonbury","fclName":"city, village,...","adminCodes1":{"ISO3166_2":"ENG"},"countryName":"United Kingdom","fcodeName":"populated place","adminName1":"England","lat":"51.14745","fcode":"PPL"},{"adminCode1":"SCT","lng":"-5.11208","geonameId":2649169,"toponymName":"Fort William","countryId":"2635167","fcl":"P","population":5830,"countryCode":"GB","name":"Fort William","fclName":"city, village,...","adminCodes1":{"ISO3166_2":"SCT"},"countryName":"United Kingdom","fcodeName":"populated place","adminName1":"Scotland","lat":"56.81648","fcode":"PPL"},{"adminCode1":"WLS","lng":"-3.1471","geonameId":2634560,"toponymName":"Welshpool","countryId":"2635167","fcl":"P","population":5948,"countryCode":"GB","name":"Welshpool","fclName":"city, village,...","adminCodes1":{"ISO3166_2":"WLS"},"countryName":"United Kingdom","fcodeName":"populated place","adminName1":"Wales","lat":"52.65973","fcode":"PPL"},{"adminCode1":"ENG","lng":"-2.64896","geonameId":2634569,"toponymName":"Wells","countryId":"2635167","fcl":"P","population":11343,"countryCode":"GB","name":"Wells","fclName":"city, village,...","adminCodes1":{"ISO3166_2":"ENG"},"countryName":"United Kingdom","fcodeName":"populated place","adminName1":"England","lat":"51.20794","fcode":"PPL"},{"adminCode1":"WLS","lng":"-3.01743","geonameId":2657815,"toponymName":"Abergavenny","countryId":"2635167","fcl":"P","population":14651,"countryCode":"GB","name":"Abergavenny","fclName":"city, village,...","adminCodes1":{"ISO3166_2":"WLS"},"countryName":"United Kingdom","fcodeName":"populated place","adminName1":"Wales","lat":"51.82098","fcode":"PPL"},{"adminCode1":"ENG","lng":"-0.15547","geonameId":6690602,"toponymName":"Battersea","countryId":"2635167","fcl":"P","population":75651,"countryCode":"GB","name":"Battersea","fclName":"city, village,...","adminCodes1":{"ISO3166_2":"ENG"},"countryName":"United Kingdom","fcodeName":"section of populated place","adminName1":"England","lat":"51.47475","fcode":"PPLX"},{"adminCode1":"ENG","lng":"-0.09421","geonameId":6690862,"toponymName":"South Croydon","countryId":"2635167","fcl":"P","population":55198,"countryCode":"GB","name":"South Croydon","fclName":"city, village,...","adminCodes1":{"ISO3166_2":"ENG"},"countryName":"United Kingdom","fcodeName":"populated locality","adminName1":"England","lat":"51.36217","fcode":"PPLL"},{"adminCode1":"ENG","lng":"0.129","geonameId":6690870,"toponymName":"Becontree","countryId":"2635167","fcl":"P","population":100000,"countryCode":"GB","name":"Becontree","fclName":"city, village,...","adminCodes1":{"ISO3166_2":"ENG"},"countryName":"United Kingdom","fcodeName":"section of populated place","adminName1":"England","lat":"51.5529","fcode":"PPLX"},{"adminCode1":"ENG","lng":"-0.10652","geonameId":6690877,"toponymName":"Brixton","countryId":"2635167","fcl":"P","population":66300,"countryCode":"GB","name":"Brixton","fclName":"city, village,...","adminCodes1":{"ISO3166_2":"ENG"},"countryName":"United Kingdom","fcodeName":"section of populated place","adminName1":"England","lat":"51.46593","fcode":"PPLX"},{"adminCode1":"ENG","lng":"-0.02085","geonameId":6692280,"toponymName":"Canary Wharf","countryId":"2635167","fcl":"P","population":73390,"countryCode":"GB","name":"Canary Wharf","fclName":"city, village,...","adminCodes1":{"ISO3166_2":"ENG"},"countryName":"United Kingdom","fcodeName":"section of populated place","adminName1":"England","lat":"51.50519","fcode":"PPLX"},{"adminCode1":"ENG","lng":"-2.997","geonameId":6693470,"toponymName":"Lytham St Annes","countryId":"2635167","fcl":"P","population":41327,"countryCode":"GB","name":"St Annes","fclName":"city, village,...","adminCodes1":{"ISO3166_2":"ENG"},"countryName":"United Kingdom","fcodeName":"populated place","adminName1":"England","lat":"53.7426","fcode":"PPL"},{"adminCode1":"SCT","lng":"-4.45028","geonameId":6639623,"toponymName":"Erskine","countryId":"2635167","fcl":"P","population":15530,"countryCode":"GB","name":"Erskine","fclName":"city, village,...","adminCodes1":{"ISO3166_2":"SCT"},"countryName":"United Kingdom","fcodeName":"populated place","adminName1":"Scotland","lat":"55.9005","fcode":"PPL"},{"adminCode1":"SCT","lng":"-3.31843","geonameId":2650122,"toponymName":"Elgin","countryId":"2635167","fcl":"P","population":22980,"countryCode":"GB","name":"Elgin","fclName":"city, village,...","adminCodes1":{"ISO3166_2":"SCT"},"countryName":"United Kingdom","fcodeName":"seat of a second-order administrative division","adminName1":"Scotland","lat":"57.64947","fcode":"PPLA2"},{"adminCode1":"ENG","lng":"-1.35","geonameId":2650396,"toponymName":"Eastleigh","countryId":"2635167","fcl":"P","population":54225,"countryCode":"GB","name":"Eastleigh","fclName":"city, village,...","adminCodes1":{"ISO3166_2":"ENG"},"countryName":"United Kingdom","fcodeName":"populated place","adminName1":"England","lat":"50.96667","fcode":"PPL"},{"adminCode1":"ENG","lng":"-0.52288","geonameId":2650657,"toponymName":"Dunstable","countryId":"2635167","fcl":"P","population":51973,"countryCode":"GB","name":"Dunstable","fclName":"city, village,...","adminCodes1":{"ISO3166_2":"ENG"},"countryName":"United Kingdom","fcodeName":"seat of a third-order administrative division","adminName1":"England","lat":"51.88571","fcode":"PPLA3"},{"adminCode1":"SCT","lng":"-3.61139","geonameId":2650798,"toponymName":"Dumfries","countryId":"2635167","fcl":"P","population":33280,"countryCode":"GB","name":"Dumfries","fclName":"city, village,...","adminCodes1":{"ISO3166_2":"SCT"},"countryName":"United Kingdom","fcodeName":"seat of a second-order administrative division","adminName1":"Scotland","lat":"55.06959","fcode":"PPLA2"},{"adminCode1":"ENG","lng":"-1.62907","geonameId":2651286,"toponymName":"Dewsbury","countryId":"2635167","fcl":"P","population":56640,"countryCode":"GB","name":"Dewsbury","fclName":"city, village,...","adminCodes1":{"ISO3166_2":"ENG"},"countryName":"United Kingdom","fcodeName":"populated place","adminName1":"England","lat":"53.69076","fcode":"PPL"},{"adminCode1":"WLS","lng":"-3.02281","geonameId":2651654,"toponymName":"Cwmbran","countryId":"2635167","fcl":"P","population":48157,"countryCode":"GB","name":"Cwmbran","fclName":"city, village,...","adminCodes1":{"ISO3166_2":"WLS"},"countryName":"United Kingdom","fcodeName":"populated place","adminName1":"Wales","lat":"51.65446","fcode":"PPL"},{"adminCode1":"ENG","lng":"-0.14088","geonameId":2652249,"toponymName":"Coulsdon","countryId":"2635167","fcl":"P","population":25500,"countryCode":"GB","name":"Coulsdon","fclName":"city, village,...","adminCodes1":{"ISO3166_2":"ENG"},"countryName":"United Kingdom","fcodeName":"populated place","adminName1":"England","lat":"51.32002","fcode":"PPL"},{"adminCode1":"NIR","lng":"-6.66667","geonameId":2652586,"toponymName":"Coleraine","countryId":"2635167","fcl":"P","population":25681,"countryCode":"GB","name":"Coleraine","fclName":"city, village,...","adminCodes1":{"ISO3166_2":"NIR"},"countryName":"United Kingdom","fcodeName":"seat of a second-order administrative division","adminName1":"Northern Ireland","lat":"55.13333","fcode":"PPLA2"},{"adminCode1":"SCT","lng":"-4.4057","geonameId":2652730,"toponymName":"Clydebank","countryId":"2635167","fcl":"P","population":26640,"countryCode":"GB","name":"Clydebank","fclName":"city, village,...","adminCodes1":{"ISO3166_2":"SCT"},"countryName":"United Kingdom","fcodeName":"populated place","adminName1":"Scotland","lat":"55.90137","fcode":"PPL"},{"adminCode1":"ENG","lng":"-1.78129","geonameId":2653075,"toponymName":"Christchurch","countryId":"2635167","fcl":"P","population":42396,"countryCode":"GB","name":"Christchurch","fclName":"city, village,...","adminCodes1":{"ISO3166_2":"ENG"},"countryName":"United Kingdom","fcodeName":"populated place","adminName1":"England","lat":"50.73583","fcode":"PPL"},{"adminCode1":"ENG","lng":"0.06858","geonameId":2653123,"toponymName":"Chislehurst","countryId":"2635167","fcl":"P","population":20000,"countryCode":"GB","name":"Chislehurst","fclName":"city, village,...","adminCodes1":{"ISO3166_2":"ENG"},"countryName":"United Kingdom","fcodeName":"populated place","adminName1":"England","lat":"51.41709","fcode":"PPL"},{"adminCode1":"ENG","lng":"-0.03026","geonameId":2653232,"toponymName":"Cheshunt","countryId":"2635167","fcl":"P","population":57374,"countryCode":"GB","name":"Cheshunt","fclName":"city, village,...","adminCodes1":{"ISO3166_2":"ENG"},"countryName":"United Kingdom","fcodeName":"populated place","adminName1":"England","lat":"51.7002","fcode":"PPL"},{"adminCode1":"WLS","lng":"-2.67683","geonameId":2653256,"toponymName":"Chepstow","countryId":"2635167","fcl":"P","population":16169,"countryCode":"GB","name":"Chepstow","fclName":"city, village,...","adminCodes1":{"ISO3166_2":"WLS"},"countryName":"United Kingdom","fcodeName":"populated place","adminName1":"Wales","lat":"51.64087","fcode":"PPL"},{"adminCode1":"ENG","lng":"-0.16936","geonameId":2653265,"toponymName":"Chelsea","countryId":"2635167","fcl":"P","population":60000,"countryCode":"GB","name":"Chelsea","fclName":"city, village,...","adminCodes1":{"ISO3166_2":"ENG"},"countryName":"United Kingdom","fcodeName":"section of populated place","adminName1":"England","lat":"51.48755","fcode":"PPLX"},{"adminCode1":"ENG","lng":"-1.36256","geonameId":2653584,"toponymName":"Castleford","countryId":"2635167","fcl":"P","population":60509,"countryCode":"GB","name":"Castleford","fclName":"city, village,...","adminCodes1":{"ISO3166_2":"ENG"},"countryName":"United Kingdom","fcodeName":"populated place","adminName1":"England","lat":"53.72587","fcode":"PPL"},{"adminCode1":"ENG","lng":"-0.16755","geonameId":2653646,"toponymName":"Carshalton","countryId":"2635167","fcl":"P","population":45525,"countryCode":"GB","name":"Carshalton","fclName":"city, village,...","adminCodes1":{"ISO3166_2":"ENG"},"countryName":"United Kingdom","fcodeName":"populated place","adminName1":"England","lat":"51.36829","fcode":"PPL"},{"adminCode1":"ENG","lng":"-2.2","geonameId":2636616,"toponymName":"Stroud","countryId":"2635167","fcl":"P","population":60155,"countryCode":"GB","name":"Stroud","fclName":"city, village,...","adminCodes1":{"ISO3166_2":"ENG"},"countryName":"United Kingdom","fcodeName":"populated place","adminName1":"England","lat":"51.75","fcode":"PPL"},{"adminCode1":"ENG","lng":"-2.14317","geonameId":2636769,"toponymName":"Stourbridge","countryId":"2635167","fcl":"P","population":56284,"countryCode":"GB","name":"Stourbridge","fclName":"city, village,...","adminCodes1":{"ISO3166_2":"ENG"},"countryName":"United Kingdom","fcodeName":"populated place","adminName1":"England","lat":"52.45608","fcode":"PPL"},{"adminCode1":"ENG","lng":"-0.50606","geonameId":2637126,"toponymName":"Staines","countryId":"2635167","fcl":"P","population":51040,"countryCode":"GB","name":"Staines-upon-Thames","fclName":"city, village,...","adminCodes1":{"ISO3166_2":"ENG"},"countryName":"United Kingdom","fcodeName":"populated place","adminName1":"England","lat":"51.43092","fcode":"PPL"},{"adminCode1":"ENG","lng":"0.1036","geonameId":2637861,"toponymName":"Sidcup","countryId":"2635167","fcl":"P","population":10400,"countryCode":"GB","name":"Sidcup","fclName":"city, village,...","adminCodes1":{"ISO3166_2":"ENG"},"countryName":"United Kingdom","fcodeName":"populated place","adminName1":"England","lat":"51.42619","fcode":"PPL"},{"adminCode1":"ENG","lng":"-2.32443","geonameId":2638678,"toponymName":"Sale","countryId":"2635167","fcl":"P","population":55689,"countryCode":"GB","name":"Sale","fclName":"city, village,...","adminCodes1":{"ISO3166_2":"ENG"},"countryName":"United Kingdom","fcodeName":"populated place","adminName1":"England","lat":"53.42519","fcode":"PPL"},{"adminCode1":"ENG","lng":"0.5452","geonameId":2638756,"toponymName":"Saint Leonards-on-Sea","countryId":"2635167","fcl":"P","population":10001,"countryCode":"GB","name":"Saint Leonards-on-Sea","fclName":"city, village,...","adminCodes1":{"ISO3166_2":"ENG"},"countryName":"United Kingdom","fcodeName":"populated place","adminName1":"England","lat":"50.85565","fcode":"PPL"},{"adminCode1":"ENG","lng":"-4.77442","geonameId":2638853,"toponymName":"St Austell","countryId":"2635167","fcl":"P","population":25447,"countryCode":"GB","name":"St Austell","fclName":"city, village,...","adminCodes1":{"ISO3166_2":"ENG"},"countryName":"United Kingdom","fcodeName":"populated place","adminName1":"England","lat":"50.3425","fcode":"PPL"},{"adminCode1":"SCT","lng":"-2.79902","geonameId":2638864,"toponymName":"Saint Andrews","countryId":"2635167","fcl":"P","population":16800,"countryCode":"GB","name":"St Andrews","fclName":"city, village,...","adminCodes1":{"ISO3166_2":"SCT"},"countryName":"United Kingdom","fcodeName":"populated place","adminName1":"Scotland","lat":"56.33871","fcode":"PPL"},{"adminCode1":"SCT","lng":"-4.21376","geonameId":2638926,"toponymName":"Rutherglen","countryId":"2635167","fcl":"P","population":31180,"countryCode":"GB","name":"Rutherglen","fclName":"city, village,...","adminCodes1":{"ISO3166_2":"SCT"},"countryName":"United Kingdom","fcodeName":"populated place","adminName1":"Scotland","lat":"55.82885","fcode":"PPL"},{"adminCode1":"ENG","lng":"-2.73124","geonameId":2638960,"toponymName":"Runcorn","countryId":"2635167","fcl":"P","population":62872,"countryCode":"GB","name":"Runcorn","fclName":"city, village,...","adminCodes1":{"ISO3166_2":"ENG"},"countryName":"United Kingdom","fcodeName":"populated place","adminName1":"England","lat":"53.34174","fcode":"PPL"},{"adminCode1":"ENG","lng":"-0.42341","geonameId":2638976,"toponymName":"Ruislip","countryId":"2635167","fcl":"P","population":31000,"countryCode":"GB","name":"Ruislip","fclName":"city, village,...","adminCodes1":{"ISO3166_2":"ENG"},"countryName":"United Kingdom","fcodeName":"populated place","adminName1":"England","lat":"51.57344","fcode":"PPL"},{"adminCode1":"WLS","lng":"-3.08333","geonameId":2654394,"toponymName":"Buckley","countryId":"2635167","fcl":"P","population":63576,"countryCode":"GB","name":"Buckley","fclName":"city, village,...","adminCodes1":{"ISO3166_2":"WLS"},"countryName":"United Kingdom","fcodeName":"seat of a third-order administrative division","adminName1":"Wales","lat":"53.16667","fcode":"PPLA3"},{"adminCode1":"ENG","lng":"-3.00356","geonameId":2654730,"toponymName":"Bridgwater","countryId":"2635167","fcl":"P","population":41276,"countryCode":"GB","name":"Bridgwater","fclName":"city, village,...","adminCodes1":{"ISO3166_2":"ENG"},"countryName":"United Kingdom","fcodeName":"populated place","adminName1":"England","lat":"51.12837","fcode":"PPL"},{"adminCode1":"WLS","lng":"-3.57722","geonameId":2654755,"toponymName":"Bridgend","countryId":"2635167","fcl":"P","population":58380,"countryCode":"GB","name":"Bridgend","fclName":"city, village,...","adminCodes1":{"ISO3166_2":"WLS"},"countryName":"United Kingdom","fcodeName":"seat of a second-order administrative division","adminName1":"Wales","lat":"51.50583","fcode":"PPLA2"},{"adminCode1":"ENG","lng":"-0.75054","geonameId":2655009,"toponymName":"Bracknell","countryId":"2635167","fcl":"P","population":76103,"countryCode":"GB","name":"Bracknell","fclName":"city, village,...","adminCodes1":{"ISO3166_2":"ENG"},"countryName":"United Kingdom","fcodeName":"seat of a second-order administrative division","adminName1":"England","lat":"51.41363","fcode":"PPLA2"},{"adminCode1":"ENG","lng":"-3.01667","geonameId":2655198,"toponymName":"Bootle","countryId":"2635167","fcl":"P","population":57791,"countryCode":"GB","name":"Bootle","fclName":"city, village,...","adminCodes1":{"ISO3166_2":"ENG"},"countryName":"United Kingdom","fcodeName":"populated place","adminName1":"England","lat":"53.46667","fcode":"PPL"},{"adminCode1":"ENG","lng":"-0.73471","geonameId":2655351,"toponymName":"Bletchley","countryId":"2635167","fcl":"P","population":50193,"countryCode":"GB","name":"Bletchley","fclName":"city, village,...","adminCodes1":{"ISO3166_2":"ENG"},"countryName":"United Kingdom","fcodeName":"populated place","adminName1":"England","lat":"51.99334","fcode":"PPL"},{"adminCode1":"ENG","lng":"0.15868","geonameId":2655562,"toponymName":"Bishops Stortford","countryId":"2635167","fcl":"P","population":37838,"countryCode":"GB","name":"Bishop's Stortford","fclName":"city, village,...","adminCodes1":{"ISO3166_2":"ENG"},"countryName":"United Kingdom","fcodeName":"populated place","adminName1":"England","lat":"51.87113","fcode":"PPL"},{"adminCode1":"ENG","lng":"-1.29034","geonameId":2655664,"toponymName":"Billingham","countryId":"2635167","fcl":"P","population":35708,"countryCode":"GB","name":"Billingham","fclName":"city, village,...","adminCodes1":{"ISO3166_2":"ENG"},"countryName":"United Kingdom","fcodeName":"populated place","adminName1":"England","lat":"54.58881","fcode":"PPL"},